~VERSION INFORMATION
 VERS.                 2.0:   CWLS LOG ASCII STANDARD - VERSION 2.0
 WRAP.                 YES:   MULTIPLE LINES PER DEPTH STEP
~WELL INFORMATION
#MNEM.UNIT       DATA           DESCRIPTION MNEMONIC
#---------    -------------   --------------------------
 STRT.FT          7615.0000:   START DEPTH
 STOP.FT          8738.0000:   STOP DEPTH
 STEP.FT             0.5000:   STEP VALUE
 NULL.                                -999.0000:   NULL VALUE
 COMP. PGL                                     : COMPANY
 WELL. Test Well 1                             : WELL
 FLD . Somewhere                               : FIELD
 LOC .                                         : LOCATION
 PROV.                                         : PROVINCE
 SRVC. SCH                                     : SERVICE COMPANY
 DATE. 1 Jan 1999                              : LOG DATE
 UWI .                                         : UNIQUE WELL ID
~CURVE INFORMATION
#MNEM          UNIT     API CODE   Curve Type
#---------- ---------- ----------  ----------
 DEPTH     .FT                   : Depth     
 CALI      .IN                   : Caliper   
 RHOB      .G/C3                 : Density   
 TNPH      .DEC                  : Neutron   
 SP        .MV                   : SP        
 SGR       .GAPI                 : GammaRay  
 LLD       .OHMM                 : DeepRes   
 LLS       .OHMM                 : MedRes    
 MSFLC     .OHMM                 : MicroRes  
 DTLN      .US/F                 : Sonic     
 DRHO      .G/C3                 : Drho      
 PERMCORE  .MD                   : CORE      
 PHICORE   .FRAC                 : CORE      
 GDCORE    .KGDM                 : CORE      
~P Interactive Petrophysics parameters
#Name        Value                 Description
#----- --------------------------  -----------
 COUNT.     UK                   : Country
 STATE.     North Sea            : State
 PDAT .     MSL                  : Permanent Datum
 EPDAT.     0.0ft                : Elevation of the Permanent datum
 LGMEA.     KB                   : Log Measured from
 DRMEA.     DF                   : Drilling Measured from
 LGMEA.     KB                   : Log Measured from
 APDAT.     60ft                 : Elevation above Permanent dataum log Measured from
 KB   .     60ft                 : KB elevation
 DF   .     59ft                 : DF elevation
 GL   .     -200ft               : GL elevation
 TLINT.     7614ft               : Top logged interval
 BLINT.     8730ft               : Bottom logged interval
 CONT .     SCH                  : Logging Contractor
 RMS  .ohmm 0.2                  : Mud resistivity
 RMFS .ohmm 0.15                 : Mud filtrate resistivity
 RMCS .ohmm 0.3                  : Mud cake resistivity
 RW   .ohmm 0.1                  : Formation resistivity
 MST  .F    60.                  : Mud resistivity temperature
 MFST .F    60.                  : Mud filtrate resistivity temperature
 MCST .F    60.                  : Mud cake resistivity temperature
 RWT  .F    60.                  : Formation resistivity temperature
~A Log data section
# ...
  8201.5000 
     8.1100      2.3140      0.1730    -14.2300     35.8700      1.9800 
     1.7600      1.2700     80.6000     -0.0010   -999.0000   -999.0000 
  -999.0000 
  8202.0000 
     8.1100      2.3110      0.1750    -13.6500     19.2700      2.1600 
     1.8300      1.3100     80.3500     -0.0020   -999.0000   -999.0000 
  -999.0000 
  8202.5000 
     8.1100      2.3080      0.1820    -13.3100     19.2200      2.2900 
     1.9800      1.4300     80.7000      0.0040   -999.0000   -999.0000 
  -999.0000 
  8203.0000 
     8.1100      2.3070      0.1890    -12.9200     26.7600      2.2500 
     2.1000      1.5300     80.5500      0.0050   -999.0000   -999.0000 
  -999.0000 
  8203.5000 
     8.1100      2.3080      0.1870    -12.7300     31.6600      2.1300 
     2.0600      1.4700     80.8500      0.0030   -999.0000   -999.0000 
  -999.0000 
  8204.0000 
     8.1100      2.2870      0.1780    -12.2200     30.7700      1.9800 
     1.9600      1.3800     80.4500     -0.0010   -999.0000   -999.0000 
  -999.0000 
  8204.5000 
     8.1100      2.2650      0.1680    -11.9700     27.3000      1.8500 
     1.8400      1.2500     80.6500     -0.0040   -999.0000   -999.0000 
  -999.0000 
  8205.0000 
     8.1100      2.2710      0.1680    -11.6900     22.6300      1.7900 
     1.7100      1.1700     80.8000     -0.0050   -999.0000   -999.0000 
  -999.0000 
  8205.5000 
     8.1100      2.2640      0.1740    -11.2700     19.2900      1.7400 
     1.6400      1.1300     81.4500     -0.0150   -999.0000   -999.0000 
  -999.0000 
  8206.0000 
     8.1100      2.2690      0.1800    -10.9700     17.6600      1.6800 
     1.5700      1.0700     82.0000     -0.0110   -999.0000   -999.0000 
  -999.0000 
  8206.5000 
     8.1100      2.2720      0.1820    -10.7900     17.1700      1.6400 
     1.4900      1.0500     82.3500     -0.0040   -999.0000   -999.0000 
  -999.0000 
  8207.0000 
     8.1100      2.2650      0.1820    -10.6400     17.4500      1.6900 
     1.4400      1.0600     82.7000     -0.0090   -999.0000   -999.0000 
  -999.0000 
  8207.5000 
     8.1100      2.2900      0.1830    -10.7400     16.5900      1.8700 
     1.4700      1.1500     82.2000      0.0000   -999.0000   -999.0000 
  -999.0000 
  8208.0000 
     8.1100      2.3240      0.1780    -11.1400     16.4800      2.2000 
     1.6100      1.3400     81.3000      0.0000   -999.0000   -999.0000 
  -999.0000 
  8208.5000 
     8.1100      2.3730      0.1740    -11.7000     20.1300      2.7600 
     1.8700      1.7300     80.1000      0.0050   -999.0000   -999.0000 
  -999.0000 
  8209.0000 
     8.1100      2.3890      0.1750    -12.2200     32.8100      3.4300 
     2.3100      2.3100     78.7500      0.0100   -999.0000   -999.0000 
  -999.0000 
  8209.5000 
     8.1200      2.3910      0.1810    -12.4700     41.3300      3.7500 
     2.8700      2.9900     78.6000      0.0070   -999.0000   -999.0000 
  -999.0000 
  8210.0000 
     8.1600      2.3850      0.1860    -12.6800     47.9100      3.8000 
     3.3700      3.3500     78.5000      0.0050   -999.0000   -999.0000 
  -999.0000 
  8210.5000 
     8.1600      2.3850      0.1880    -12.9800     48.0200      3.7300 
     3.5800      3.3100     77.9500      0.0080   -999.0000   -999.0000 
  -999.0000 
  8211.0000 
     8.1500      2.3870      0.1920    -12.3700     47.2700      3.3100 
     3.5000      2.9700     79.8900      0.0040   -999.0000   -999.0000 
  -999.0000 
  8211.5000 
     8.1700      2.3770      0.2000    -11.8700     42.8300      2.7900 
     2.9900      2.4900     80.5000      0.0050   -999.0000   -999.0000 
  -999.0000 
  8212.0000 
     8.1700      2.3230      0.1960    -11.3600     51.6600      2.2400 
     2.2800      1.9800     81.1000      0.0010   -999.0000   -999.0000 
  -999.0000 
  8212.5000 
     8.1800      2.2800      0.1830    -10.7500     48.4300      1.9300 
     1.8600      1.5700     81.6000     -0.0050   -999.0000   -999.0000 
  -999.0000 
  8213.0000 
     8.1200      2.2730      0.1770    -10.3500     33.2800      1.7400 
     1.6300      1.1900     82.2500     -0.0090   -999.0000   -999.0000 
  -999.0000 
  8213.5000 
     8.0800      2.2850      0.1830    -10.1300     25.3700      1.7100 
     1.4700      1.0300     82.1600     -0.0080   -999.0000   -999.0000 
  -999.0000 
  8214.0000 
     8.0800      2.2740      0.1930     -9.7300     20.4100      1.6600 
     1.4500      0.9900     83.0000     -0.0090   -999.0000   -999.0000 
  -999.0000 
  8214.5000 
     8.0800      2.2410      0.1980     -9.5700     17.6400      1.5500 
     1.4200      0.9400     82.9500     -0.0040   -999.0000   -999.0000 
  -999.0000 
  8215.0000 
     8.0800      2.2230      0.1910     -9.2800     14.8300      1.5000 
     1.3400      0.9000     82.2000     -0.0120   -999.0000   -999.0000 
  -999.0000 
  8215.5000 
     8.0800      2.2330      0.1800     -9.4500     15.5200      1.5900 
     1.3100      0.9000     80.9000     -0.0210   -999.0000   -999.0000 
  -999.0000 
  8216.0000 
     8.0800      2.2630      0.1730     -9.5500     16.1600      1.8100 
     1.3900      0.9900     80.4000     -0.0170   -999.0000   -999.0000 
  -999.0000 
  8216.5000 
     8.0800      2.3070      0.1690     -9.9200     20.2800      2.1200 
     1.5900      1.2400     79.8000     -0.0100   -999.0000   -999.0000 
  -999.0000 
  8217.0000 
     8.0800      2.3500      0.1740    -10.2700     31.3900      2.4700 
     1.8600      1.5100     80.0500     -0.0020   -999.0000   -999.0000 
  -999.0000 
  8217.5000 
     8.0800      2.3540      0.1730    -10.4100     42.4900      2.6500 
     2.1500      1.6800     80.9000      0.0050   -999.0000   -999.0000 
  -999.0000 
  8218.0000 
     8.0800      2.3340      0.1690    -10.6300     49.0700      2.5000 
     2.3200      1.6700     81.0500      0.0030   -999.0000   -999.0000 
  -999.0000 
  8218.5000 
     8.0800      2.3110      0.1700    -10.6200     36.8500      2.3000 
     2.1900      1.5300     81.2000     -0.0010   -999.0000   -999.0000 
  -999.0000 
  8219.0000 
     8.0800      2.2840      0.1650    -10.5700     31.7600      2.2200 
     2.0200      1.4000     81.0000     -0.0070   -999.0000   -999.0000 
  -999.0000 
  8219.5000 
     8.1100      2.2900      0.1670    -10.6300     27.2400      2.1600 
     1.9400      1.3500     80.5000     -0.0090   -999.0000   -999.0000 
  -999.0000 
  8220.0000 
     8.1100      2.3120      0.1680    -10.7400     23.9100      2.1100 
     1.8800      1.3300     79.7000     -0.0050   -999.0000   -999.0000 
  -999.0000 
  8220.5000 
     8.1100      2.3200      0.1620    -11.0600     25.0800      2.1300 
     1.8300      1.3700     79.9000     -0.0010   -999.0000   -999.0000 
  -999.0000 
  8221.0000 
     8.1100      2.3380      0.1610    -11.0900     27.8100      2.1400 
     1.8600      1.4400     80.1500      0.0070   -999.0000   -999.0000 
  -999.0000 
  8221.5000 
     8.1100      2.3350      0.1690    -11.2900     22.4600      2.2600 
     1.8700      1.5100     79.5000      0.0040   -999.0000   -999.0000 
  -999.0000 
  8222.0000 
     8.1100      2.3720      0.1860    -11.5900     19.4800      2.6600 
     1.9800      1.8400     79.4000      0.0110   -999.0000   -999.0000 
  -999.0000 
  8222.5000 
     8.1100      2.4380      0.1990    -11.8600     26.5900      3.2200 
     2.3300      2.5500     77.5500      0.0330   -999.0000   -999.0000 
  -999.0000 
  8223.0000 
     8.1300      2.4620      0.2000    -12.6100     57.1000      3.8500 
     2.8200      3.2700     77.0000      0.0400   -999.0000   -999.0000 
  -999.0000 
  8223.5000 
     8.1600      2.4420      0.1930    -12.9500     60.7300      3.9500 
     3.5200      3.8900     78.8900      0.0190   -999.0000   -999.0000 
  -999.0000 
  8224.0000 
     8.1600      2.4170      0.1870    -13.0700     57.4800      3.3500 
     4.0500      3.7800     79.0500      0.0100   -999.0000   -999.0000 
  -999.0000 
  8224.5000 
     8.1600      2.3540      0.1770    -13.0700     48.9200      2.7600 
     3.3800      3.0400     80.5400      0.0040   -999.0000   -999.0000 
  -999.0000 
