~VERSION INFORMATION
 VERS.                 2.0:   CWLS LOG ASCII STANDARD - VERSION 2.0
 WRAP.                 YES:   MULTIPLE LINES PER DEPTH STEP
~WELL INFORMATION
#MNEM.UNIT       DATA           DESCRIPTION MNEMONIC
#---------    -------------   --------------------------
 STRT.FT          7615.0000:   START DEPTH
 STOP.FT          8738.0000:   STOP DEPTH
 STEP.FT             0.5000:   STEP VALUE
 NULL.                                -999.0000:   NULL VALUE
 COMP. PGL                                     : COMPANY
 WELL. Test Well 1                             : WELL
 FLD . Somewhere                               : FIELD
 LOC .                                         : LOCATION
 PROV.                                         : PROVINCE
 SRVC. SCH                                     : SERVICE COMPANY
 DATE. 1 Jan 1999                              : LOG DATE
 UWI .                                         : UNIQUE WELL ID
~CURVE INFORMATION
#MNEM          UNIT     API CODE   Curve Type
#---------- ---------- ----------  ----------
 DEPTH     .FT                   : Depth     
 CALI      .IN                   : Caliper   
 RHOB      .G/C3                 : Density   
 TNPH      .DEC                  : Neutron   
 SP        .MV                   : SP        
 SGR       .GAPI                 : GammaRay  
 LLD       .OHMM                 : DeepRes   
 LLS       .OHMM                 : MedRes    
 MSFLC     .OHMM                 : MicroRes  
 DTLN      .US/F                 : Sonic     
 DRHO      .G/C3                 : Drho      
 PERMCORE  .MD                   : CORE      
 PHICORE   .FRAC                 : CORE      
 GDCORE    .KGDM                 : CORE      
~P Interactive Petrophysics parameters
#Name        Value                 Description
#----- --------------------------  -----------
 COUNT.     UK                   : Country
 STATE.     North Sea            : State
 PDAT .     MSL                  : Permanent Datum
 EPDAT.     0.0ft                : Elevation of the Permanent datum
 LGMEA.     KB                   : Log Measured from
 DRMEA.     DF                   : Drilling Measured from
 LGMEA.     KB                   : Log Measured from
 APDAT.     60ft                 : Elevation above Permanent dataum log Measured from
 KB   .     60ft                 : KB elevation
 DF   .     59ft                 : DF elevation
 GL   .     -200ft               : GL elevation
 TLINT.     7614ft               : Top logged interval
 BLINT.     8730ft               : Bottom logged interval
 CONT .     SCH                  : Logging Contractor
 RMS  .ohmm 0.2                  : Mud resistivity
 RMFS .ohmm 0.15                 : Mud filtrate resistivity
 RMCS .ohmm 0.3                  : Mud cake resistivity
 RW   .ohmm 0.1                  : Formation resistivity
 MST  .F    60.                  : Mud resistivity temperature
 MFST .F    60.                  : Mud filtrate resistivity temperature
 MCST .F    60.                  : Mud cake resistivity temperature
 RWT  .F    60.                  : Formation resistivity temperature
~A Log data section
# ...
  8577.5000 
     8.1500      2.2840      0.1800     -7.7800     24.9900      1.7400 
     1.4000      1.0800     80.6500      0.0020   -999.0000   -999.0000 
  -999.0000 
  8578.0000 
     8.1500      2.2670      0.1910     -7.8200     27.1300      1.7700 
     1.4500      1.1400     81.3500     -0.0010   1349.0000      0.2370 
     2.6400 
  8578.5000 
     8.1500      2.2520      0.1920     -7.6300     27.4400      1.7200 
     1.4500      1.1400     81.7000     -0.0060    579.6000      0.2390 
     2.6300 
  8579.0000 
     8.1500      2.2600      0.1960     -7.6200     27.2200      1.7300 
     1.4300      1.0900     82.4000     -0.0020   -999.0000   -999.0000 
  -999.0000 
  8579.5000 
     8.1500      2.2850      0.2070     -7.5700     29.9600      1.8400 
     1.4600      1.0900     82.8000      0.0100   -999.0000   -999.0000 
  -999.0000 
  8580.0000 
     8.1500      2.2910      0.2220     -7.4700     31.8500      1.8300 
     1.5100      1.1400     82.8100      0.0160   -999.0000   -999.0000 
  -999.0000 
  8580.5000 
     8.1400      2.2900      0.2260     -7.7300     39.2100      1.7000 
     1.4600      1.1800     84.2000      0.0140   1185.0000      0.2500 
     2.6300 
  8581.0000 
     8.1500      2.2460      0.2160     -7.4100     41.7800      1.5500 
     1.3600      1.1300     85.6500      0.0050   -999.0000   -999.0000 
  -999.0000 
  8581.5000 
     8.1400      2.2250      0.2160     -7.2600     38.4200      1.3800 
     1.2400      0.9900     86.0100      0.0070   -999.0000   -999.0000 
  -999.0000 
  8582.0000 
     8.1500      2.2110      0.2280     -7.0600     25.0500      1.2900 
     1.1300      0.8200     87.0000      0.0030    126.3000      0.2390 
     2.6300 
  8582.5000 
     8.1400      2.1950      0.2370     -7.0500     20.8000      1.2500 
     1.0700      0.7100     87.4500      0.0010   -999.0000   -999.0000 
  -999.0000 
  8583.0000 
     8.1400      2.1990      0.2330     -7.0400     20.1600      1.2300 
     1.0500      0.6600     87.6000      0.0080   -999.0000   -999.0000 
  -999.0000 
  8583.5000 
     8.1500      2.2080      0.2230     -7.2000     19.5200      1.1900 
     1.0200      0.6400     87.6000      0.0140   1467.0000      0.2750 
     2.6300 
  8584.0000 
     8.1500      2.1900      0.2160     -7.2800     19.5300      1.1900 
     1.0100      0.6300     86.7000      0.0120   -999.0000   -999.0000 
  -999.0000 
  8584.5000 
     8.1500      2.2060      0.2110     -7.3900     17.9500      1.2100 
     1.0100      0.6400     85.2900      0.0110   1678.0000      0.2720 
     2.6400 
  8585.0000 
     8.1500      2.2200      0.2060     -7.4900     18.6400      1.2300 
     1.0300      0.6800     84.0600      0.0090   -999.0000   -999.0000 
  -999.0000 
  8585.5000 
     8.1500      2.2400      0.2010     -7.6900     17.1800      1.2200 
     1.0400      0.7300     84.2900      0.0100   1541.0000      0.2820 
     2.6400 
  8586.0000 
     8.1400      2.2450      0.1940     -7.8400     18.4300      1.2600 
     1.0500      0.7800     82.9600      0.0060   -999.0000   -999.0000 
  -999.0000 
  8586.5000 
     8.1500      2.2360      0.1860     -8.3600     18.8400      1.3500 
     1.1000      0.8200     82.9000     -0.0030   -999.0000   -999.0000 
  -999.0000 
  8587.0000 
     8.1500      2.2610      0.1780     -8.4000     20.1400      1.4400 
     1.1700      0.8800     82.0000     -0.0020   1243.0000      0.2510 
     2.6300 
  8587.5000 
     8.1500      2.2970      0.1750     -8.7300     20.8500      1.5800 
     1.2600      0.9700     81.6500      0.0010   -999.0000   -999.0000 
  -999.0000 
  8588.0000 
     8.1500      2.3150      0.1750     -8.9300     19.5200      1.7200 
     1.3800      1.0700     81.4000     -0.0010   -999.0000   -999.0000 
  -999.0000 
  8588.5000 
     8.1500      2.3000      0.1740     -9.1500     18.0000      1.7600 
     1.4600      1.1400     81.4000      0.0030   -999.0000   -999.0000 
  -999.0000 
  8589.0000 
     8.1500      2.3000      0.1780     -9.3100     20.8800      1.7700 
     1.4900      1.1700     80.9500      0.0060   -999.0000   -999.0000 
  -999.0000 
  8589.5000 
     8.1500      2.2880      0.1790     -9.5800     19.8300      1.7600 
     1.4900      1.1800     80.8000      0.0030   1196.0000      0.2380 
     2.6300 
  8590.0000 
     8.1500      2.2840      0.1760     -9.8900     17.7500      1.7100 
     1.4700      1.1900     80.9000      0.0070   -999.0000   -999.0000 
  -999.0000 
  8590.5000 
     8.1500      2.2950      0.1690    -10.0400     19.0700      1.6800 
     1.4300      1.1700     79.7000      0.0090   -999.0000   -999.0000 
  -999.0000 
  8591.0000 
     8.1400      2.3350      0.1580    -10.4500     17.9300      1.7300 
     1.4400      1.3400     78.0600      0.0100   1172.0000      0.2410 
     2.6300 
  8591.5000 
     8.1500      2.3890      0.1510    -10.7900     18.7700      1.7500 
     1.4700      1.9500     77.9500      0.0190   -999.0000   -999.0000 
  -999.0000 
  8592.0000 
     8.1500      2.3630      0.1560    -11.2300     22.2200      1.9100 
     1.5400      2.4900     78.1500      0.0190    782.5000      0.2420 
     2.6300 
  8592.5000 
     8.1500      2.3270      0.1730    -11.7600     17.7100      2.1400 
     1.6900      2.5700     78.7600      0.0130   -999.0000   -999.0000 
  -999.0000 
  8593.0000 
     8.1600      2.3200      0.1830    -12.5800     29.1600      2.2300 
     1.8500      2.3100     80.7500      0.0090   -999.0000   -999.0000 
  -999.0000 
  8593.5000 
     8.1600      2.3440      0.1850    -13.0900     37.5400      2.3900 
     1.9600      1.7900     81.3000      0.0170    414.8000      0.1950 
     2.6400 
  8594.0000 
     8.1600      2.3310      0.1850    -13.2000     37.6900      2.4700 
     2.0900      1.7000     81.8000      0.0090   -999.0000   -999.0000 
  -999.0000 
  8594.5000 
     8.1500      2.3410      0.1860    -13.2900     37.1800      2.3700 
     2.1300      1.7700     82.9500      0.0100    233.9000      0.2270 
     2.6300 
  8595.0000 
     8.1700      2.3450      0.1920    -13.3600     36.6500      2.2700 
     2.0700      1.6900     84.0000      0.0180   -999.0000   -999.0000 
  -999.0000 
  8595.5000 
     8.1700      2.3450      0.2120    -13.0900     30.2700      2.1300 
     1.9800      1.5600     84.1600      0.0200   -999.0000      0.2120 
     2.6400 
  8596.0000 
     8.1800      2.3580      0.2130    -13.0300     39.7800      2.0100 
     1.8700      1.4300     86.3900      0.0300   -999.0000   -999.0000 
  -999.0000 
  8596.5000 
     8.1800      2.3090      0.2020    -12.3600     41.4800      1.8000 
     1.7500      1.3400     86.3000      0.0210   -999.0000   -999.0000 
  -999.0000 
  8597.0000 
     8.1800      2.2790      0.2080    -11.7100     34.5600      1.6300 
     1.5900      1.3100     86.8400      0.0100    412.1000      0.2090 
     2.6300 
  8597.5000 
     8.1800      2.2820      0.2290    -10.9100     27.1200      1.6000 
     1.4800      1.2600     85.6000      0.0150   -999.0000   -999.0000 
  -999.0000 
  8598.0000 
     8.2000      2.3120      0.2350    -10.0300     27.7600      1.5200 
     1.4400      1.2600     84.4000      0.0390   1156.0000      0.2500 
     2.6400 
  8598.5000 
     8.1900      2.3020      0.2230     -9.3300     34.3500      1.5000 
     1.3800      1.2700     84.5400      0.0330   -999.0000   -999.0000 
  -999.0000 
  8599.0000 
     8.1800      2.2890      0.2080     -8.6700     41.0600      1.6600 
     1.4200      1.2800     82.1000      0.0160   1143.0000      0.2390 
     2.6500 
  8599.5000 
     8.1800      2.3150      0.1990     -8.3100     30.3100      1.7000 
     1.5400      1.3400     82.6500      0.0090     15.7800      0.1390 
     2.6800 
  8600.0000 
     8.1800      2.3570      0.2020     -7.9900     27.3600      1.8900 
     1.6300      1.4000     82.3500      0.0110   1098.0000      0.2410 
     2.6400 
  8600.5000 
     8.1700      2.3600      0.1980     -7.6800     35.0100      2.1200 
     1.8000      1.5400     81.5000      0.0140   -999.0000   -999.0000 
  -999.0000 
