~VERSION INFORMATION
 VERS.                 2.0:   CWLS LOG ASCII STANDARD - VERSION 2.0
 WRAP.                 YES:   MULTIPLE LINES PER DEPTH STEP
~WELL INFORMATION
#MNEM.UNIT       DATA           DESCRIPTION MNEMONIC
#---------    -------------   --------------------------
 STRT.FT          7615.0000:   START DEPTH
 STOP.FT          8738.0000:   STOP DEPTH
 STEP.FT             0.5000:   STEP VALUE
 NULL.                                -999.0000:   NULL VALUE
 COMP. PGL                                     : COMPANY
 WELL. Test Well 1                             : WELL
 FLD . Somewhere                               : FIELD
 LOC .                                         : LOCATION
 PROV.                                         : PROVINCE
 SRVC. SCH                                     : SERVICE COMPANY
 DATE. 1 Jan 1999                              : LOG DATE
 UWI .                                         : UNIQUE WELL ID
~CURVE INFORMATION
#MNEM          UNIT     API CODE   Curve Type
#---------- ---------- ----------  ----------
 DEPTH     .FT                   : Depth     
 CALI      .IN                   : Caliper   
 RHOB      .G/C3                 : Density   
 TNPH      .DEC                  : Neutron   
 SP        .MV                   : SP        
 SGR       .GAPI                 : GammaRay  
 LLD       .OHMM                 : DeepRes   
 LLS       .OHMM                 : MedRes    
 MSFLC     .OHMM                 : MicroRes  
 DTLN      .US/F                 : Sonic     
 DRHO      .G/C3                 : Drho      
 PERMCORE  .MD                   : CORE      
 PHICORE   .FRAC                 : CORE      
 GDCORE    .KGDM                 : CORE      
~P Interactive Petrophysics parameters
#Name        Value                 Description
#----- --------------------------  -----------
 COUNT.     UK                   : Country
 STATE.     North Sea            : State
 PDAT .     MSL                  : Permanent Datum
 EPDAT.     0.0ft                : Elevation of the Permanent datum
 LGMEA.     KB                   : Log Measured from
 DRMEA.     DF                   : Drilling Measured from
 LGMEA.     KB                   : Log Measured from
 APDAT.     60ft                 : Elevation above Permanent dataum log Measured from
 KB   .     60ft                 : KB elevation
 DF   .     59ft                 : DF elevation
 GL   .     -200ft               : GL elevation
 TLINT.     7614ft               : Top logged interval
 BLINT.     8730ft               : Bottom logged interval
 CONT .     SCH                  : Logging Contractor
 RMS  .ohmm 0.2                  : Mud resistivity
 RMFS .ohmm 0.15                 : Mud filtrate resistivity
 RMCS .ohmm 0.3                  : Mud cake resistivity
 RW   .ohmm 0.1                  : Formation resistivity
 MST  .F    60.                  : Mud resistivity temperature
 MFST .F    60.                  : Mud filtrate resistivity temperature
 MCST .F    60.                  : Mud cake resistivity temperature
 RWT  .F    60.                  : Formation resistivity temperature
~A Log data section
# ...
  7684.5000 
    12.5900      2.2840      0.4740    -31.4000     90.1200      1.2400 
     1.1200      0.3500     95.6200      0.1690   -999.0000   -999.0000 
  -999.0000 
  7685.0000 
    12.1500      2.3300      0.4820    -31.6300     89.2800      1.0600 
     1.1500      0.3100     99.5100      0.1620   -999.0000   -999.0000 
  -999.0000 
  7685.5000 
    12.3400      2.1370      0.5190    -31.6900     90.5500      1.0700 
     1.1600      0.3200    104.2900      0.1010   -999.0000   -999.0000 
  -999.0000 
  7686.0000 
    11.8500      2.0810      0.5600    -31.7600     88.5500      1.1000 
     1.1300      0.3600    102.9000      0.0940   -999.0000   -999.0000 
  -999.0000 
  7686.5000 
    12.3500      2.0170      0.4490    -31.9200     89.7600      0.9100 
     1.1200      0.3700    102.9500      0.0670   -999.0000   -999.0000 
  -999.0000 
  7687.0000 
    12.3600      2.0020      0.3350    -31.7500     93.0100      0.9400 
     1.1200      0.3400    102.0900      0.0500   -999.0000   -999.0000 
  -999.0000 
  7687.5000 
    12.1300      1.9840      0.3330    -31.7900     96.1300      1.0900 
     1.1500      0.3100    100.9400      0.0420   -999.0000   -999.0000 
  -999.0000 
  7688.0000 
    11.8100      1.9780      0.3840    -32.2000     92.6600      1.2100 
     1.2400      0.2700     94.7100      0.0270   -999.0000   -999.0000 
  -999.0000 
  7688.5000 
    12.1600      2.1860      0.4110    -32.3400     93.5500      1.3500 
     1.3900      0.2600     98.9500      0.0270   -999.0000   -999.0000 
  -999.0000 
  7689.0000 
     9.4000      2.1840      0.4260    -32.6300     91.8100      1.4500 
     1.4900      0.3300     90.8600      0.0010   -999.0000   -999.0000 
  -999.0000 
  7689.5000 
     9.5700      2.1490      0.4190    -32.7300     92.7800      1.7100 
     1.6800      0.5500     88.1400     -0.0300   -999.0000   -999.0000 
  -999.0000 
  7690.0000 
     9.6800      2.1600      0.4000    -33.1200     93.1400      1.7800 
     1.7800      0.8600     93.1400     -0.0380   -999.0000   -999.0000 
  -999.0000 
  7690.5000 
     9.4200      2.1550      0.3900    -33.1100     95.0000      1.7100 
     1.7700      1.1300     93.7000     -0.0330   -999.0000   -999.0000 
  -999.0000 
  7691.0000 
     9.2000      2.1990      0.4000    -32.9800     97.9000      1.6600 
     1.7200      1.2700     92.5000     -0.0120   -999.0000   -999.0000 
  -999.0000 
  7691.5000 
     9.1800      2.2950      0.4190    -32.8100     97.1000      1.6100 
     1.7000      1.2300     93.0000      0.0110   -999.0000   -999.0000 
  -999.0000 
  7692.0000 
     9.2100      2.2790      0.4260    -32.8300     95.1800      1.5400 
     1.5800      1.0800     93.9400      0.0540   -999.0000   -999.0000 
  -999.0000 
  7692.5000 
     9.2600      2.2040      0.4260    -32.9300     93.1500      1.5200 
     1.5100      0.8500     90.8900      0.1000   -999.0000   -999.0000 
  -999.0000 
  7693.0000 
     9.3800      2.2320      0.4340    -32.3400     94.3500      1.4900 
     1.5100      0.6100     86.1400      0.1430   -999.0000   -999.0000 
  -999.0000 
  7693.5000 
     9.7800      2.2340      0.4390    -32.4600     91.5600      1.3400 
     1.5000      0.4900     98.7400      0.1430   -999.0000   -999.0000 
  -999.0000 
  7694.0000 
     9.8000      2.2360      0.4810    -32.0500     90.4300      1.3300 
     1.4900      0.5100     93.9000      0.1490   -999.0000   -999.0000 
  -999.0000 
  7694.5000 
     9.3500      2.2050      0.5170    -31.9500     89.4300      1.4900 
     1.4300      0.5600     92.5500      0.1130   -999.0000   -999.0000 
  -999.0000 
  7695.0000 
     9.4300      2.2090      0.5160    -32.0300     93.2200      1.6000 
     1.3400      0.5400     93.8900      0.0980   -999.0000   -999.0000 
  -999.0000 
  7695.5000 
     9.4800      2.2280      0.4760    -31.7300     93.7400      1.2000 
     1.2700      0.4300     92.8900      0.1110   -999.0000   -999.0000 
  -999.0000 
  7696.0000 
     9.8500      2.2170      0.4560    -31.5900     93.4400      1.2000 
     1.2600      0.3400     90.8200      0.1050   -999.0000   -999.0000 
  -999.0000 
  7696.5000 
    10.2400      2.2330      0.4550    -32.2800     93.1300      1.2500 
     1.3000      0.3300     92.5300      0.1120   -999.0000   -999.0000 
  -999.0000 
  7697.0000 
    10.6200      2.2070      0.4500    -32.0600     92.5200      1.3300 
     1.3800      0.3600     97.9000      0.0990   -999.0000   -999.0000 
  -999.0000 
  7697.5000 
    10.3300      2.2050      0.4620    -32.0400     96.9700      1.4000 
     1.4500      0.4100     97.9900      0.1030   -999.0000   -999.0000 
  -999.0000 
  7698.0000 
    10.1600      2.2310      0.4960    -32.3700     99.7100      1.3800 
     1.4400      0.4300     95.2000      0.1200   -999.0000   -999.0000 
  -999.0000 
  7698.5000 
    10.4200      2.2590      0.4820    -32.3600     99.1100      1.3000 
     1.3900      0.4300     95.2900      0.1490   -999.0000   -999.0000 
  -999.0000 
  7699.0000 
    10.6000      2.2870      0.4610    -32.2500     99.0500      1.3200 
     1.3900      0.4200     92.8700      0.1890   -999.0000   -999.0000 
  -999.0000 
  7699.5000 
    10.7600      2.3010      0.4890    -32.2400     98.7800      1.3300 
     1.4100      0.3900     94.7100      0.2060   -999.0000   -999.0000 
  -999.0000 
  7700.0000 
    11.0200      2.2840      0.4820    -32.1100     97.4800      1.2200 
     1.3600      0.3400     97.7900      0.2110   -999.0000   -999.0000 
  -999.0000 
  7700.5000 
    11.7400      2.3300      0.4630    -32.0000     96.5200      1.2600 
     1.3500      0.3100     98.5000      0.2220   -999.0000   -999.0000 
  -999.0000 
  7701.0000 
    11.6000      2.3270      0.4790    -32.0200     96.2000      1.2400 
     1.3500      0.3200     98.1400      0.2250   -999.0000   -999.0000 
  -999.0000 
  7701.5000 
    11.1800      2.3440      0.5090    -32.1800     95.2900      1.2100 
     1.3400      0.3700     94.8100      0.2400   -999.0000   -999.0000 
  -999.0000 
  7702.0000 
    10.8700      2.3290      0.4870    -32.1100     97.1900      1.1900 
     1.3200      0.4300     95.2200      0.2260   -999.0000   -999.0000 
  -999.0000 
  7702.5000 
    10.0700      2.3180      0.5140    -31.9800    100.4100      1.1900 
     1.2900      0.4700     97.0500      0.2330   -999.0000   -999.0000 
  -999.0000 
  7703.0000 
    10.2300      2.3120      0.5280    -31.8100     99.1800      1.2000 
     1.2900      0.4900     96.8300      0.2260   -999.0000   -999.0000 
  -999.0000 
  7703.5000 
    10.5900      2.3070      0.4900    -31.7700     98.9100      1.2300 
     1.3000      0.4800     93.8700      0.2220   -999.0000   -999.0000 
  -999.0000 
  7704.0000 
    10.6100      2.3410      0.4550    -31.5400     99.1300      1.2300 
     1.2900      0.4500     97.1400      0.2160   -999.0000   -999.0000 
  -999.0000 
  7704.5000 
    10.9700      2.2560      0.4150    -31.8000     99.5900      1.3300 
     1.3100      0.4400     95.3400      0.1710   -999.0000   -999.0000 
  -999.0000 
  7705.0000 
    10.9400      2.1010      0.3960    -31.6600     99.1300      1.2600 
     1.3100      0.4700     93.0300      0.1140   -999.0000   -999.0000 
  -999.0000 
  7705.5000 
    11.2500      2.1390      0.4310    -31.5300     97.9000      1.3300 
     1.3300      0.5000     98.0800      0.1140   -999.0000   -999.0000 
  -999.0000 
  7706.0000 
    11.0800      2.0740      0.5300    -31.6700    103.0000      1.2900 
     1.3100      0.5300     93.5900      0.0850   -999.0000   -999.0000 
  -999.0000 
  7706.5000 
    10.7800      1.9960      0.5800    -31.5700    100.6900      1.2300 
     1.2600      0.4900     87.2400      0.0400   -999.0000   -999.0000 
  -999.0000 
  7707.0000 
    11.1600      2.0030      0.5880    -31.6200    100.2200      1.1500 
     1.1900      0.4300     94.2900      0.0330   -999.0000   -999.0000 
  -999.0000 
  7707.5000 
    11.2000      1.9980      0.5560    -31.5900    100.6900      1.0600 
     1.1500      0.3900     90.7100      0.0360   -999.0000   -999.0000 
  -999.0000 
