~VERSION INFORMATION
 VERS.                 2.0:   CWLS LOG ASCII STANDARD - VERSION 2.0
 WRAP.                 YES:   MULTIPLE LINES PER DEPTH STEP
~WELL INFORMATION
#MNEM.UNIT       DATA           DESCRIPTION MNEMONIC
#---------    -------------   --------------------------
 STRT.FT          7615.0000:   START DEPTH
 STOP.FT          8738.0000:   STOP DEPTH
 STEP.FT             0.5000:   STEP VALUE
 NULL.                                -999.0000:   NULL VALUE
 COMP. PGL                                     : COMPANY
 WELL. Test Well 1                             : WELL
 FLD . Somewhere                               : FIELD
 LOC .                                         : LOCATION
 PROV.                                         : PROVINCE
 SRVC. SCH                                     : SERVICE COMPANY
 DATE. 1 Jan 1999                              : LOG DATE
 UWI .                                         : UNIQUE WELL ID
~CURVE INFORMATION
#MNEM          UNIT     API CODE   Curve Type
#---------- ---------- ----------  ----------
 DEPTH     .FT                   : Depth     
 CALI      .IN                   : Caliper   
 RHOB      .G/C3                 : Density   
 TNPH      .DEC                  : Neutron   
 SP        .MV                   : SP        
 SGR       .GAPI                 : GammaRay  
 LLD       .OHMM                 : DeepRes   
 LLS       .OHMM                 : MedRes    
 MSFLC     .OHMM                 : MicroRes  
 DTLN      .US/F                 : Sonic     
 DRHO      .G/C3                 : Drho      
 PERMCORE  .MD                   : CORE      
 PHICORE   .FRAC                 : CORE      
 GDCORE    .KGDM                 : CORE      
~P Interactive Petrophysics parameters
#Name        Value                 Description
#----- --------------------------  -----------
 COUNT.     UK                   : Country
 STATE.     North Sea            : State
 PDAT .     MSL                  : Permanent Datum
 EPDAT.     0.0ft                : Elevation of the Permanent datum
 LGMEA.     KB                   : Log Measured from
 DRMEA.     DF                   : Drilling Measured from
 LGMEA.     KB                   : Log Measured from
 APDAT.     60ft                 : Elevation above Permanent dataum log Measured from
 KB   .     60ft                 : KB elevation
 DF   .     59ft                 : DF elevation
 GL   .     -200ft               : GL elevation
 TLINT.     7614ft               : Top logged interval
 BLINT.     8730ft               : Bottom logged interval
 CONT .     SCH                  : Logging Contractor
 RMS  .ohmm 0.2                  : Mud resistivity
 RMFS .ohmm 0.15                 : Mud filtrate resistivity
 RMCS .ohmm 0.3                  : Mud cake resistivity
 RW   .ohmm 0.1                  : Formation resistivity
 MST  .F    60.                  : Mud resistivity temperature
 MFST .F    60.                  : Mud filtrate resistivity temperature
 MCST .F    60.                  : Mud cake resistivity temperature
 RWT  .F    60.                  : Formation resistivity temperature
~A Log data section
  7614.0000 
     9.5500      2.4080      0.3040    -33.2200    102.1400      1.7200 
     1.6400      1.5700     91.3500      0.0100   -999.0000   -999.0000 
  -999.0000 
  7614.5000 
     9.5500      2.4310      0.3460    -33.3500     99.2000      1.7200 
     1.6300      1.5300     91.5500      0.0170   -999.0000   -999.0000 
  -999.0000 
  7615.0000 
     9.5500      2.4630      0.3680    -33.4300     96.0300      1.7300 
     1.6300      1.4900     91.6000      0.0190   -999.0000   -999.0000 
  -999.0000 
  7615.5000 
     9.5500      2.4450      0.3440    -33.2200     95.4000      1.7600 
     1.6400      1.5100     91.6000      0.0110   -999.0000   -999.0000 
  -999.0000 
  7616.0000 
     9.5500      2.4170      0.2970    -33.1400     96.1700      1.7700 
     1.6500      1.6100     91.7000      0.0120   -999.0000   -999.0000 
  -999.0000 
  7616.5000 
     9.5500      2.4040      0.2630    -33.3400     96.7600      1.7900 
     1.6500      1.6800     91.3000      0.0120   -999.0000   -999.0000 
  -999.0000 
  7617.0000 
     9.5500      2.4200      0.2660    -33.1600     98.5400      1.8000 
     1.6400      1.6700     91.2000      0.0090   -999.0000   -999.0000 
  -999.0000 
  7617.5000 
     9.5500      2.4300      0.2870    -33.1800    101.6800      1.8100 
     1.6200      1.6100     91.5500      0.0090   -999.0000   -999.0000 
  -999.0000 
  7618.0000 
     9.5500      2.4250      0.2990    -33.2400    103.4500      1.7800 
     1.6000      1.5300     91.8000      0.0180   -999.0000   -999.0000 
  -999.0000 
  7618.5000 
     9.5500      2.4160      0.2970    -33.3100    102.5100      1.7300 
     1.5600      1.5000     91.6200      0.0280   -999.0000   -999.0000 
  -999.0000 
  7619.0000 
     9.5500      2.4130      0.2980    -33.5300    102.2900      1.6900 
     1.5300      1.4800     94.6800      0.0130   -999.0000   -999.0000 
  -999.0000 
  7619.5000 
     9.5500      2.4110      0.3150    -32.8500    103.3300      1.6500 
     1.5000      1.4400     89.1100      0.0060   -999.0000   -999.0000 
  -999.0000 
  7620.0000 
     9.5500      2.4410      0.3350    -33.2500    102.2900      1.6400 
     1.4800      1.4100     90.4000      0.0130   -999.0000   -999.0000 
  -999.0000 
  7620.5000 
     9.5500      2.4350      0.3440    -33.3700    100.3500      1.6300 
     1.4700      1.4000     92.2600      0.0110   -999.0000   -999.0000 
  -999.0000 
  7621.0000 
     9.5500      2.4110      0.3330    -33.2700    100.6300      1.6300 
     1.4500      1.4000     94.0800      0.0100   -999.0000   -999.0000 
  -999.0000 
  7621.5000 
     9.5500      2.4160      0.3320    -33.2500    101.6800      1.5900 
     1.4100      1.3800     99.3000      0.0250   -999.0000   -999.0000 
  -999.0000 
  7622.0000 
     9.5200      2.4200      0.3240    -33.5800    101.1300      1.5500 
     1.3700      1.3500     90.2200      0.0250   -999.0000   -999.0000 
  -999.0000 
  7622.5000 
     9.5000      2.3900      0.3090    -33.5700    100.0000      1.5600 
     1.3600      1.3000     99.0400      0.0150   -999.0000   -999.0000 
  -999.0000 
  7623.0000 
     9.4500      2.4300      0.2840    -33.4500     97.5400      1.5700 
     1.3700      1.2800     88.9000      0.0300   -999.0000   -999.0000 
  -999.0000 
  7623.5000 
     9.5100      2.3720      0.2870    -33.4900     96.4600      1.6200 
     1.4300      1.3000     88.6400      0.0260   -999.0000   -999.0000 
  -999.0000 
  7624.0000 
     9.3100      1.9780      0.3610    -33.5600     98.3300      1.7200 
     1.5000      1.3400     81.9200     -0.0100   -999.0000   -999.0000 
  -999.0000 
  7624.5000 
     9.2000      1.9370      0.4820    -33.3400     97.1900      1.7900 
     1.5500      1.2700     85.2000      0.0150   -999.0000   -999.0000 
  -999.0000 
  7625.0000 
     9.2300      1.9680      0.5130    -32.9800     93.6500      1.6500 
     1.4600      1.0100     89.3500      0.0570   -999.0000   -999.0000 
  -999.0000 
  7625.5000 
     9.4600      1.9990      0.4740    -32.6600     93.7400      1.3500 
     1.2200      0.7000     91.4500      0.0760   -999.0000   -999.0000 
  -999.0000 
  7626.0000 
     9.8200      2.0450      0.4450    -32.3000     96.3400      1.1400 
     1.0300      0.4300     90.5900      0.0890   -999.0000   -999.0000 
  -999.0000 
  7626.5000 
     9.8800      2.1440      0.4440    -32.7000     98.7400      0.9600 
     0.8700      0.3200     88.7400      0.1100   -999.0000   -999.0000 
  -999.0000 
  7627.0000 
    10.3000      2.1970      0.4120    -32.4100    100.3700      0.8200 
     0.7500      0.2800     95.6600      0.1000   -999.0000   -999.0000 
  -999.0000 
  7627.5000 
    10.5300      2.1590      0.4140    -31.9800    102.3300      0.7500 
     0.6800      0.2700     95.6100      0.0920   -999.0000   -999.0000 
  -999.0000 
  7628.0000 
    11.2100      1.9180      0.4200    -32.2200    102.6300      0.6900 
     0.6400      0.2500     97.1400      0.0630   -999.0000   -999.0000 
  -999.0000 
  7628.5000 
    12.0100      2.0670      0.4030    -32.5300    105.1400      0.6600 
     0.6200      0.2400     86.0200      0.0790   -999.0000   -999.0000 
  -999.0000 
  7629.0000 
    10.4900      2.2930      0.4050    -32.2800    109.8800      0.6600 
     0.6100      0.2400     97.4100      0.0840   -999.0000   -999.0000 
  -999.0000 
  7629.5000 
     9.9700      2.3480      0.4080    -32.2000    122.2000      0.7000 
     0.6400      0.2700    105.7600      0.0490   -999.0000   -999.0000 
  -999.0000 
  7630.0000 
     9.4000      2.3190      0.4000    -32.7000    131.6800      0.7600 
     0.6900      0.3300    112.9600      0.0090   -999.0000   -999.0000 
  -999.0000 
  7630.5000 
     9.2800      2.3420      0.3940    -32.5800    133.8300      0.7900 
     0.7200      0.4200    109.7500      0.0140   -999.0000   -999.0000 
  -999.0000 
  7631.0000 
     9.2100      2.1370      0.4090    -32.5100    138.8200      0.7100 
     0.6600      0.4900    100.0000      0.0020   -999.0000   -999.0000 
  -999.0000 
  7631.5000 
     9.1800      1.9040      0.3760    -32.5000    139.6900      0.5500 
     0.5300      0.4600     90.8000      0.0010   -999.0000   -999.0000 
  -999.0000 
  7632.0000 
     9.5200      2.1230      0.3290    -32.2100    137.0100      0.4700 
     0.4400      0.3900     91.3000      0.0820   -999.0000   -999.0000 
  -999.0000 
  7632.5000 
    11.1100      2.2980      0.3240    -31.7300    129.2600      0.4900 
     0.4500      0.3000     91.9400      0.1440   -999.0000   -999.0000 
  -999.0000 
  7633.0000 
    10.1800      2.3390      0.3640    -31.6900    102.4700      0.5600 
     0.4900      0.2200     91.0500      0.1740   -999.0000   -999.0000 
  -999.0000 
  7633.5000 
     9.0800      2.3300      0.3570    -31.6300     90.4300      0.7900 
     0.6400      0.2100     90.0200      0.1700   -999.0000   -999.0000 
  -999.0000 
  7634.0000 
     9.2800      2.4260      0.3510    -31.7400     88.3000      1.0600 
     0.9000      0.2200     94.8200      0.2090   -999.0000   -999.0000 
  -999.0000 
  7634.5000 
     9.3700      2.4380      0.3510    -32.0400     93.3600      1.3300 
     1.0700      0.2300     87.1300      0.2230   -999.0000   -999.0000 
  -999.0000 
  7635.0000 
     9.5000      2.4610      0.3460    -32.0600     92.5300      1.3700 
     1.2100      0.2600     91.6400      0.2430   -999.0000   -999.0000 
  -999.0000 
  7635.5000 
     9.8600      2.4270      0.3520    -31.7700     91.6900      1.3300 
     1.4300      0.2900     92.6400      0.2240   -999.0000   -999.0000 
  -999.0000 
  7636.0000 
    10.2100      2.4160      0.3510    -31.5800     90.7800      1.2700 
     1.5200      0.3200     89.0200      0.2280   -999.0000   -999.0000 
  -999.0000 
  7636.5000 
    10.2700      2.3640      0.3470    -32.2600     91.2200      1.5800 
     1.4800      0.3400     91.2500      0.2180   -999.0000   -999.0000 
  -999.0000 
  7637.0000 
    10.3900      2.2740      0.3500    -32.3100     93.2500      1.7200 
     1.5300      0.3600     91.1000      0.1730   -999.0000   -999.0000 
  -999.0000 
