~VERSION INFORMATION
 VERS.                 2.0:   CWLS LOG ASCII STANDARD - VERSION 2.0
 WRAP.                 YES:   MULTIPLE LINES PER DEPTH STEP
~WELL INFORMATION
#MNEM.UNIT       DATA           DESCRIPTION MNEMONIC
#---------    -------------   --------------------------
 STRT.FT          7615.0000:   START DEPTH
 STOP.FT          8738.0000:   STOP DEPTH
 STEP.FT             0.5000:   STEP VALUE
 NULL.                                -999.0000:   NULL VALUE
 COMP. PGL                                     : COMPANY
 WELL. Test Well 1                             : WELL
 FLD . Somewhere                               : FIELD
 LOC .                                         : LOCATION
 PROV.                                         : PROVINCE
 SRVC. SCH                                     : SERVICE COMPANY
 DATE. 1 Jan 1999                              : LOG DATE
 UWI .                                         : UNIQUE WELL ID
~CURVE INFORMATION
#MNEM          UNIT     API CODE   Curve Type
#---------- ---------- ----------  ----------
 DEPTH     .FT                   : Depth     
 CALI      .IN                   : Caliper   
 RHOB      .G/C3                 : Density   
 TNPH      .DEC                  : Neutron   
 SP        .MV                   : SP        
 SGR       .GAPI                 : GammaRay  
 LLD       .OHMM                 : DeepRes   
 LLS       .OHMM                 : MedRes    
 MSFLC     .OHMM                 : MicroRes  
 DTLN      .US/F                 : Sonic     
 DRHO      .G/C3                 : Drho      
 PERMCORE  .MD                   : CORE      
 PHICORE   .FRAC                 : CORE      
 GDCORE    .KGDM                 : CORE      
~P Interactive Petrophysics parameters
#Name        Value                 Description
#----- --------------------------  -----------
 COUNT.     UK                   : Country
 STATE.     North Sea            : State
 PDAT .     MSL                  : Permanent Datum
 EPDAT.     0.0ft                : Elevation of the Permanent datum
 LGMEA.     KB                   : Log Measured from
 DRMEA.     DF                   : Drilling Measured from
 LGMEA.     KB                   : Log Measured from
 APDAT.     60ft                 : Elevation above Permanent dataum log Measured from
 KB   .     60ft                 : KB elevation
 DF   .     59ft                 : DF elevation
 GL   .     -200ft               : GL elevation
 TLINT.     7614ft               : Top logged interval
 BLINT.     8730ft               : Bottom logged interval
 CONT .     SCH                  : Logging Contractor
 RMS  .ohmm 0.2                  : Mud resistivity
 RMFS .ohmm 0.15                 : Mud filtrate resistivity
 RMCS .ohmm 0.3                  : Mud cake resistivity
 RW   .ohmm 0.1                  : Formation resistivity
 MST  .F    60.                  : Mud resistivity temperature
 MFST .F    60.                  : Mud filtrate resistivity temperature
 MCST .F    60.                  : Mud cake resistivity temperature
 RWT  .F    60.                  : Formation resistivity temperature
~A Log data section
# ...
  8060.5000 
     8.1500      2.3740      0.1510     -9.5600     30.3600      2.6600 
     2.2400      1.6800     76.9500      0.0100    254.4000      0.2290 
     2.6500 
  8061.0000 
     8.1500      2.4030      0.1600     -9.5400     32.5200      2.6400 
     2.3700      1.9700     76.7000      0.0120   -999.0000   -999.0000 
  -999.0000 
  8061.5000 
     8.1500      2.3970      0.1640     -9.3900     34.1500      2.5200 
     2.3600      2.0200     77.1000      0.0180   -999.0000   -999.0000 
  -999.0000 
  8062.0000 
     8.1500      2.3500      0.1630     -9.2000     28.0800      2.3100 
     2.2700      1.8500     77.2500      0.0180     24.0900      0.1830 
     2.7000 
  8062.5000 
     8.1400      2.3270      0.1600     -9.2200     23.3500      2.1000 
     2.1000      1.5300     77.9000      0.0170   -999.0000   -999.0000 
  -999.0000 
  8063.0000 
     8.1500      2.3090      0.1580     -9.1700     22.4800      2.1100 
     1.9500      1.3400     78.2000      0.0100    376.0000      0.2140 
     2.6500 
  8063.5000 
     8.1500      2.3210      0.1580     -9.7000     23.0500      2.1700 
     1.9700      1.3100     78.2500      0.0100    320.4000      0.2100 
     2.6500 
  8064.0000 
     8.1500      2.3160      0.1650     -9.8400     24.1600      2.2800 
     2.0400      1.3400     78.9000      0.0120   -999.0000   -999.0000 
  -999.0000 
  8064.5000 
     8.1500      2.3170      0.1690    -10.3700     25.3600      2.4200 
     2.1400      1.3900     79.3000      0.0050   -999.0000   -999.0000 
  -999.0000 
  8065.0000 
     8.1800      2.3310      0.1690    -11.0500     24.3900      2.5500 
     2.2700      1.4500     79.7500      0.0080    109.0000      0.2020 
     2.6500 
  8065.5000 
     8.1800      2.3320      0.1710    -11.7300     33.1500      2.6900 
     2.4000      1.5200     79.8000      0.0140   -999.0000   -999.0000 
  -999.0000 
  8066.0000 
     8.1700      2.3210      0.1800    -12.6300     35.3300      2.7600 
     2.5200      1.6100     79.8000      0.0100   -999.0000   -999.0000 
  -999.0000 
  8066.5000 
     8.1800      2.3420      0.1860    -13.4100     36.4500      2.9100 
     2.6100      1.7300     80.5000      0.0120   -999.0000   -999.0000 
  -999.0000 
  8067.0000 
     8.1700      2.3540      0.1840    -14.3100     43.1000      3.1500 
     2.7600      1.9000     79.9000      0.0110   -999.0000   -999.0000 
  -999.0000 
  8067.5000 
     8.1700      2.3920      0.1890    -15.2700     48.2400      3.3000 
     2.9800      2.1600     80.2000      0.0180   -999.0000   -999.0000 
  -999.0000 
  8068.0000 
     8.1800      2.4200      0.2020    -16.1000     63.8400      3.4000 
     3.1100      2.3800     80.0000      0.0330   -999.0000   -999.0000 
  -999.0000 
  8068.5000 
     8.2300      2.4140      0.2020    -17.0500     65.9000      3.4900 
     3.2200      2.4900     79.3100      0.0330   -999.0000   -999.0000 
  -999.0000 
  8069.0000 
     8.2400      2.3810      0.2000    -17.9600     66.7800      3.4800 
     3.3100      2.5300     80.3500      0.0190   -999.0000   -999.0000 
  -999.0000 
  8069.5000 
     8.2300      2.3800      0.2040    -18.4800     64.7700      3.5200 
     3.3400      2.5700     80.5000      0.0070   -999.0000   -999.0000 
  -999.0000 
  8070.0000 
     8.2500      2.4020      0.2140    -19.0600     65.7700      3.7200 
     3.4200      2.7900     80.7500      0.0100   -999.0000   -999.0000 
  -999.0000 
  8070.5000 
     8.2700      2.4090      0.2270    -19.3900     82.1200      3.8100 
     3.6100      3.1100     81.0500      0.0110   -999.0000   -999.0000 
  -999.0000 
  8071.0000 
     8.3100      2.4180      0.2230    -19.8100     85.2300      3.8400 
     3.7100      3.1900     80.6500      0.0150   -999.0000   -999.0000 
  -999.0000 
  8071.5000 
     8.3600      2.4190      0.2100    -20.1200     84.1700      3.9300 
     3.8000      3.1700     80.0500      0.0200   -999.0000   -999.0000 
  -999.0000 
  8072.0000 
     8.3600      2.4110      0.2190    -20.4000     85.8600      3.7100 
     3.9000      3.1200     80.5500      0.0220   -999.0000   -999.0000 
  -999.0000 
  8072.5000 
     8.3600      2.4310      0.2320    -20.5700     88.5000      3.3100 
     3.8500      3.1600     80.6500      0.0340   -999.0000   -999.0000 
  -999.0000 
  8073.0000 
     8.3900      2.4510      0.2430    -20.8900     90.1800      3.5200 
     3.9600      3.3700     80.8000      0.0360   -999.0000   -999.0000 
  -999.0000 
  8073.5000 
     8.3900      2.5140      0.2630    -20.9400     90.2400      3.5600 
     4.1900      3.5900     81.1000      0.0550   -999.0000   -999.0000 
  -999.0000 
  8074.0000 
     8.4200      2.5210      0.2780    -20.9200     99.5500      3.6200 
     4.2600      3.8000     81.0500      0.0470   -999.0000   -999.0000 
  -999.0000 
  8074.5000 
     8.4300      2.4890      0.2860    -20.7900    106.1300      3.7300 
     4.3200      4.0800     80.5000      0.0160   -999.0000   -999.0000 
  -999.0000 
  8075.0000 
     8.4300      2.5010      0.2940    -20.4300    108.5400      3.6900 
     4.4300      4.3300     80.3000      0.0190   -999.0000   -999.0000 
  -999.0000 
  8075.5000 
     8.4300      2.5370      0.3060    -20.5600    108.0400      3.6300 
     4.4000      4.4400     80.6000      0.0420   -999.0000   -999.0000 
  -999.0000 
  8076.0000 
     8.4300      2.5230      0.3090    -19.8400    110.2900      3.6500 
     4.3200      4.4100     80.4000      0.0500   -999.0000   -999.0000 
  -999.0000 
  8076.5000 
     8.4300      2.5160      0.3080    -19.2500    112.4600      3.6900 
     4.3100      4.3200     79.9000      0.0550   -999.0000   -999.0000 
  -999.0000 
  8077.0000 
     8.4300      2.5100      0.3240    -18.4900     97.9300      3.3900 
     4.2500      4.3400     80.5500      0.0530   -999.0000   -999.0000 
  -999.0000 
  8077.5000 
     8.4200      2.4560      0.3060    -17.3400     93.6900      2.8700 
     3.6700      4.0900     81.4000      0.0490   -999.0000   -999.0000 
  -999.0000 
  8078.0000 
     8.3400      2.3160      0.2560    -16.0500     91.0000      2.2500 
     2.7500      3.4100     82.3600      0.0080   -999.0000   -999.0000 
  -999.0000 
  8078.5000 
     8.3100      2.2700      0.2040    -14.4600     55.4300      1.7900 
     2.1700      2.4100     84.5600      0.0010   -999.0000   -999.0000 
  -999.0000 
  8079.0000 
     8.1600      2.2440      0.1820    -12.4200     28.9000      1.4700 
     1.7400      1.4400     85.6000     -0.0010   -999.0000   -999.0000 
  -999.0000 
  8079.5000 
     8.1100      2.2380      0.1840    -10.9300     22.7900      1.3600 
     1.4500      0.9400     85.5500     -0.0040   -999.0000   -999.0000 
  -999.0000 
  8080.0000 
     8.1100      2.2560      0.1840     -9.8800     16.5700      1.3400 
     1.3500      0.7800     84.4500     -0.0100   -999.0000   -999.0000 
  -999.0000 
  8080.5000 
     8.1100      2.2730      0.1700     -9.2900     16.5600      1.4100 
     1.3400      0.7500     82.8500     -0.0060   -999.0000   -999.0000 
  -999.0000 
  8081.0000 
     8.1100      2.2920      0.1530     -9.1200     16.4900      1.5300 
     1.4100      0.8100     80.8000     -0.0020   -999.0000   -999.0000 
  -999.0000 
  8081.5000 
     8.1100      2.3260      0.1420     -8.8400     18.3900      1.7600 
     1.5400      0.9600     78.9000     -0.0020   -999.0000   -999.0000 
  -999.0000 
  8082.0000 
     8.1100      2.3410      0.1410     -8.9800     20.7700      2.0300 
     1.7500      1.1600     77.5500      0.0010   -999.0000   -999.0000 
  -999.0000 
  8082.5000 
     8.1100      2.3340      0.1460     -8.9100     25.0800      2.2300 
     1.9800      1.3200     77.6000      0.0030   -999.0000   -999.0000 
  -999.0000 
  8083.0000 
     8.1100      2.3300      0.1550     -9.1000     31.7000      2.3100 
     2.1200      1.4900     77.5500     -0.0060   -999.0000   -999.0000 
  -999.0000 
  8083.5000 
     8.1100      2.3350      0.1550     -9.3200     37.6600      2.3800 
     2.1600      1.5300     77.8000     -0.0090   -999.0000   -999.0000 
  -999.0000 
