~VERSION INFORMATION
 VERS.                 2.0:   CWLS LOG ASCII STANDARD - VERSION 2.0
 WRAP.                 YES:   MULTIPLE LINES PER DEPTH STEP
~WELL INFORMATION
#MNEM.UNIT       DATA           DESCRIPTION MNEMONIC
#---------    -------------   --------------------------
 STRT.FT          7615.0000:   START DEPTH
 STOP.FT          8738.0000:   STOP DEPTH
 STEP.FT             0.5000:   STEP VALUE
 NULL.                                -999.0000:   NULL VALUE
 COMP. PGL                                     : COMPANY
 WELL. Test Well 1                             : WELL
 FLD . Somewhere                               : FIELD
 LOC .                                         : LOCATION
 PROV.                                         : PROVINCE
 SRVC. SCH                                     : SERVICE COMPANY
 DATE. 1 Jan 1999                              : LOG DATE
 UWI .                                         : UNIQUE WELL ID
~CURVE INFORMATION
#MNEM          UNIT     API CODE   Curve Type
#---------- ---------- ----------  ----------
 DEPTH     .FT                   : Depth     
 CALI      .IN                   : Caliper   
 RHOB      .G/C3                 : Density   
 TNPH      .DEC                  : Neutron   
 SP        .MV                   : SP        
 SGR       .GAPI                 : GammaRay  
 LLD       .OHMM                 : DeepRes   
 LLS       .OHMM                 : MedRes    
 MSFLC     .OHMM                 : MicroRes  
 DTLN      .US/F                 : Sonic     
 DRHO      .G/C3                 : Drho      
 PERMCORE  .MD                   : CORE      
 PHICORE   .FRAC                 : CORE      
 GDCORE    .KGDM                 : CORE      
~P Interactive Petrophysics parameters
#Name        Value                 Description
#----- --------------------------  -----------
 COUNT.     UK                   : Country
 STATE.     North Sea            : State
 PDAT .     MSL                  : Permanent Datum
 EPDAT.     0.0ft                : Elevation of the Permanent datum
 LGMEA.     KB                   : Log Measured from
 DRMEA.     DF                   : Drilling Measured from
 LGMEA.     KB                   : Log Measured from
 APDAT.     60ft                 : Elevation above Permanent dataum log Measured from
 KB   .     60ft                 : KB elevation
 DF   .     59ft                 : DF elevation
 GL   .     -200ft               : GL elevation
 TLINT.     7614ft               : Top logged interval
 BLINT.     8730ft               : Bottom logged interval
 CONT .     SCH                  : Logging Contractor
 RMS  .ohmm 0.2                  : Mud resistivity
 RMFS .ohmm 0.15                 : Mud filtrate resistivity
 RMCS .ohmm 0.3                  : Mud cake resistivity
 RW   .ohmm 0.1                  : Formation resistivity
 MST  .F    60.                  : Mud resistivity temperature
 MFST .F    60.                  : Mud filtrate resistivity temperature
 MCST .F    60.                  : Mud cake resistivity temperature
 RWT  .F    60.                  : Formation resistivity temperature
~A Log data section
# ...
  8342.5000 
     8.2400      2.3310      0.1870    -23.7800     43.5400      8.2600 
     5.3900      2.5400     82.2100     -0.0010   -999.0000   -999.0000 
  -999.0000 
  8343.0000 
     8.2400      2.4000      0.1920    -23.6900     51.5000      9.9900 
     6.0800      3.0900     83.1000     -0.0030      0.8800      0.2400 
     2.6500 
  8343.5000 
     8.2400      2.4320      0.1990    -23.1700     58.4200     11.3100 
     6.5200      3.8100     83.2500      0.0100      1.5200      0.1420 
     2.6700 
  8344.0000 
     8.2400      2.3050      0.1930    -22.8100     54.7400     11.0100 
     6.4800      4.3100     84.1500     -0.0050   -999.0000   -999.0000 
  -999.0000 
  8344.5000 
     8.2200      2.2640      0.1800    -22.1900     40.1100     10.1500 
     6.0900      4.1200     83.8000     -0.0110   -999.0000   -999.0000 
  -999.0000 
  8345.0000 
     8.1900      2.3050      0.1740    -21.6900     29.5400      9.1900 
     5.7400      3.4200     82.3000     -0.0030   -999.0000   -999.0000 
  -999.0000 
  8345.5000 
     8.2000      2.3250      0.1710    -21.4200     26.8200      8.1200 
     5.4700      2.7100     82.6000      0.0000    179.4000      0.2220 
     2.7200 
  8346.0000 
     8.2100      2.3040      0.1740    -20.9900     25.3700      7.5300 
     5.2100      2.2400     83.2100      0.0040   -999.0000   -999.0000 
  -999.0000 
  8346.5000 
     8.2000      2.2720      0.1760    -20.6100     21.7400      7.3000 
     5.0300      2.1300     84.4000     -0.0060   -999.0000   -999.0000 
  -999.0000 
  8347.0000 
     8.1900      2.3000      0.1710    -20.0500     19.9700      7.5700 
     5.0400      2.1600     84.1500      0.0010      3.5100      0.2390 
     2.6700 
  8347.5000 
     8.2000      2.3130      0.1650    -19.8100     21.9000      8.4800 
     5.3300      2.1700     84.4000      0.0040   -999.0000   -999.0000 
  -999.0000 
  8348.0000 
     8.2000      2.3120      0.1670    -19.4500     25.0800     10.1200 
     5.8500      2.2000     83.3600     -0.0030    772.2000      0.2240 
     2.6500 
  8348.5000 
     8.2000      2.2800      0.1770    -18.8000     26.1900     11.8100 
     6.3400      2.1500     85.3900     -0.0080   -999.0000   -999.0000 
  -999.0000 
  8349.0000 
     8.2000      2.2640      0.1830    -18.4100     26.1400     12.3900 
     6.5000      2.4000     86.0000     -0.0050    156.0000      0.1360 
     2.6700 
  8349.5000 
     8.2000      2.2520      0.1840    -17.7100     25.0400     12.7700 
     6.5200      2.9100     85.5500     -0.0080   -999.0000   -999.0000 
  -999.0000 
  8350.0000 
     8.2000      2.2480      0.1870    -17.1900     23.3900     12.8100 
     6.5600      3.0700     84.5500     -0.0160   1306.0000      0.2490 
     2.6400 
  8350.5000 
     8.2000      2.2750      0.1880    -16.8600     23.5900     12.1100 
     6.5900      3.2000     83.6500     -0.0090    994.1000      0.2460 
     2.6500 
  8351.0000 
     8.2000      2.2740      0.1830    -16.7800     25.6600     12.5800 
     6.6200      3.0600     83.1000     -0.0130   -999.0000   -999.0000 
  -999.0000 
  8351.5000 
     8.2000      2.2840      0.1780    -16.7100     27.7500     14.3600 
     6.7700      2.8700     83.0500     -0.0090    392.1000      0.2360 
     2.6400 
  8352.0000 
     8.1900      2.3030      0.1730    -16.7900     29.3100     16.4600 
     7.2800      3.0600     83.4500      0.0020   -999.0000   -999.0000 
  -999.0000 
  8352.5000 
     8.2000      2.2820      0.1680    -16.9500     29.1800     17.8600 
     7.8500      3.0700     84.0400      0.0030   -999.0000   -999.0000 
  -999.0000 
  8353.0000 
     8.2000      2.2650      0.1700    -17.1600     23.9000     17.9600 
     8.0700      3.1600     82.9000     -0.0020   -999.0000   -999.0000 
  -999.0000 
  8353.5000 
     8.2000      2.2600      0.1750    -17.3200     21.8100     16.8800 
     7.8100      3.1200     82.9000      0.0000    457.9000      0.2250 
     2.6400 
  8354.0000 
     8.1800      2.2650      0.1780    -17.5000     23.6400     15.4400 
     7.2600      2.8000     82.5000      0.0000   -999.0000   -999.0000 
  -999.0000 
  8354.5000 
     8.1900      2.2750      0.1780    -17.5900     22.8400     14.7100 
     6.8000      2.4300     81.7500     -0.0030    725.4000      0.2390 
     2.6400 
  8355.0000 
     8.1900      2.2760      0.1750    -17.7800     20.4900     14.8600 
     6.6600      2.1200     81.4500     -0.0060   -999.0000   -999.0000 
  -999.0000 
  8355.5000 
     8.1900      2.2910      0.1700    -17.8600     21.8400     16.1000 
     6.8700      2.0700     81.7000      0.0000   -999.0000   -999.0000 
  -999.0000 
  8356.0000 
     8.1900      2.2900      0.1660    -18.0800     21.8200     18.5100 
     7.4400      2.1300     82.6500      0.0030   -999.0000   -999.0000 
  -999.0000 
  8356.5000 
     8.1900      2.2690      0.1690    -17.4500     21.9500     21.3100 
     8.2300      2.3900     83.5100     -0.0010   -999.0000   -999.0000 
  -999.0000 
  8357.0000 
     8.1900      2.2560      0.1760    -17.3300     21.8000     24.4200 
     9.1400      2.8000     85.7900      0.0050   -999.0000   -999.0000 
  -999.0000 
  8357.5000 
     8.1900      2.2260      0.1820    -17.3900     20.8300     26.8500 
    10.0100      3.2400     85.6500      0.0070    346.1000      0.2220 
     2.6400 
  8358.0000 
     8.1800      2.2050      0.1820    -17.3700     20.3800     26.7400 
    10.3000      3.5400     85.8000     -0.0020   -999.0000   -999.0000 
  -999.0000 
  8358.5000 
     8.1900      2.2200      0.1770    -17.1900     20.0600     25.3200 
     9.9400      3.4600     84.9000     -0.0030   1269.0000      0.2450 
     2.6400 
  8359.0000 
     8.1900      2.2540      0.1770    -17.1500     19.5700     23.6900 
     9.3100      3.0500     83.7500     -0.0010   1046.0000      0.2570 
     2.6400 
  8359.5000 
     8.1800      2.2440      0.1840    -17.1200     18.2800     21.7700 
     8.5700      2.5800     83.6500     -0.0050   -999.0000   -999.0000 
  -999.0000 
  8360.0000 
     8.1900      2.2630      0.1940    -17.2700     18.8500     19.9200 
     7.8300      2.1800     83.5500     -0.0040    455.0000      0.2280 
     2.6400 
  8360.5000 
     8.1900      2.2660      0.1970    -17.3900     19.5600     18.2300 
     7.2000      1.9700     84.4100      0.0000   -999.0000   -999.0000 
  -999.0000 
  8361.0000 
     8.1900      2.2520      0.1950    -17.6900     19.7700     16.4400 
     6.7600      1.8300     85.8000      0.0050    730.0000      0.2400 
     2.6400 
  8361.5000 
     8.1900      2.2450      0.2000    -18.1100     20.0600     14.7300 
     6.5200      1.7400     87.2600      0.0080   -999.0000   -999.0000 
  -999.0000 
  8362.0000 
     8.1900      2.2210      0.2030    -18.4300     22.5900     14.3800 
     6.5700      1.6500     89.5100     -0.0020   -999.0000   -999.0000 
  -999.0000 
  8362.5000 
     8.2000      2.2110      0.1970    -18.4900     23.6800     15.8000 
     6.8600      1.5900     90.7000     -0.0070    271.4000      0.2320 
     2.6600 
  8363.0000 
     8.1900      2.1750      0.1860    -18.2300     27.9100     18.2100 
     7.2900      1.8600     91.8500     -0.0070   -999.0000   -999.0000 
  -999.0000 
  8363.5000 
     8.1800      2.1440      0.1800    -18.0400     25.5100     21.6100 
     8.0800      2.5400     92.6900     -0.0070   -999.0000   -999.0000 
  -999.0000 
  8364.0000 
     8.1900      2.1090      0.1780    -18.1300     20.4900     24.3000 
     9.1600      3.1200     91.9000     -0.0150   1887.0000      0.2880 
     2.6400 
  8364.5000 
     8.1900      2.1290      0.1840    -18.1700     19.2600     22.2700 
     9.3300      3.5500     90.3500     -0.0050   -999.0000   -999.0000 
  -999.0000 
  8365.0000 
     8.2000      2.1770      0.1950    -18.3400     19.7200     17.5300 
     8.0700      3.4000     88.2900      0.0080   -999.0000   -999.0000 
  -999.0000 
  8365.5000 
     8.2000      2.2210      0.1990    -18.5700     23.3500     14.7300 
     6.6700      2.8900     85.8500      0.0140   1781.0000      0.2940 
     2.6400 
