~VERSION INFORMATION
 VERS.                 2.0:   CWLS LOG ASCII STANDARD - VERSION 2.0
 WRAP.                 YES:   MULTIPLE LINES PER DEPTH STEP
~WELL INFORMATION
#MNEM.UNIT       DATA           DESCRIPTION MNEMONIC
#---------    -------------   --------------------------
 STRT.FT          7615.0000:   START DEPTH
 STOP.FT          8738.0000:   STOP DEPTH
 STEP.FT             0.5000:   STEP VALUE
 NULL.                                -999.0000:   NULL VALUE
 COMP. PGL                                     : COMPANY
 WELL. Test Well 1                             : WELL
 FLD . Somewhere                               : FIELD
 LOC .                                         : LOCATION
 PROV.                                         : PROVINCE
 SRVC. SCH                                     : SERVICE COMPANY
 DATE. 1 Jan 1999                              : LOG DATE
 UWI .                                         : UNIQUE WELL ID
~CURVE INFORMATION
#MNEM          UNIT     API CODE   Curve Type
#---------- ---------- ----------  ----------
 DEPTH     .FT                   : Depth     
 CALI      .IN                   : Caliper   
 RHOB      .G/C3                 : Density   
 TNPH      .DEC                  : Neutron   
 SP        .MV                   : SP        
 SGR       .GAPI                 : GammaRay  
 LLD       .OHMM                 : DeepRes   
 LLS       .OHMM                 : MedRes    
 MSFLC     .OHMM                 : MicroRes  
 DTLN      .US/F                 : Sonic     
 DRHO      .G/C3                 : Drho      
 PERMCORE  .MD                   : CORE      
 PHICORE   .FRAC                 : CORE      
 GDCORE    .KGDM                 : CORE      
~P Interactive Petrophysics parameters
#Name        Value                 Description
#----- --------------------------  -----------
 COUNT.     UK                   : Country
 STATE.     North Sea            : State
 PDAT .     MSL                  : Permanent Datum
 EPDAT.     0.0ft                : Elevation of the Permanent datum
 LGMEA.     KB                   : Log Measured from
 DRMEA.     DF                   : Drilling Measured from
 LGMEA.     KB                   : Log Measured from
 APDAT.     60ft                 : Elevation above Permanent dataum log Measured from
 KB   .     60ft                 : KB elevation
 DF   .     59ft                 : DF elevation
 GL   .     -200ft               : GL elevation
 TLINT.     7614ft               : Top logged interval
 BLINT.     8730ft               : Bottom logged interval
 CONT .     SCH                  : Logging Contractor
 RMS  .ohmm 0.2                  : Mud resistivity
 RMFS .ohmm 0.15                 : Mud filtrate resistivity
 RMCS .ohmm 0.3                  : Mud cake resistivity
 RW   .ohmm 0.1                  : Formation resistivity
 MST  .F    60.                  : Mud resistivity temperature
 MFST .F    60.                  : Mud filtrate resistivity temperature
 MCST .F    60.                  : Mud cake resistivity temperature
 RWT  .F    60.                  : Formation resistivity temperature
~A Log data section
# ...
  7990.0000 
     8.1800      2.3350      0.1550    -11.7100     27.4500      2.1500 
     1.9500      1.4300     78.3000      0.0020   -999.0000   -999.0000 
  -999.0000 
  7990.5000 
     8.1800      2.3280      0.1510    -12.1500     26.9700      2.2300 
     2.0200      1.5000     78.0000     -0.0020    274.5000      0.2220 
     2.6500 
  7991.0000 
     8.1700      2.3350      0.1540    -12.5300     27.1200      2.2600 
     2.0900      1.5700     78.1100     -0.0020    185.0000      0.2100 
     2.6500 
  7991.5000 
     8.1700      2.3390      0.1620    -12.8000     25.3000      2.2900 
     2.1400      1.6100     79.2500      0.0000   -999.0000   -999.0000 
  -999.0000 
  7992.0000 
     8.1700      2.3230      0.1640    -13.5400     31.7500      2.2900 
     2.1700      1.6200     79.5000     -0.0100   -999.0000   -999.0000 
  -999.0000 
  7992.5000 
     8.1800      2.3310      0.1680    -13.8400     32.2400      2.2400 
     2.1700      1.6100     80.0500     -0.0150    186.1000      0.2090 
     2.6500 
  7993.0000 
     8.1800      2.3380      0.1720    -14.5600     30.7800      2.2200 
     2.1400      1.5900     80.5000     -0.0110   -999.0000   -999.0000 
  -999.0000 
  7993.5000 
     8.1800      2.3130      0.1780    -15.1000     32.2400      2.2400 
     2.1200      1.5900     81.1000     -0.0120     96.1400      0.2060 
     2.6500 
  7994.0000 
     8.1800      2.3050      0.1870    -15.3400     41.2500      2.3000 
     2.1500      1.6200     81.6500     -0.0180   -999.0000   -999.0000 
  -999.0000 
  7994.5000 
     8.1700      2.3400      0.2000    -15.7900     44.9600      2.5500 
     2.2400      1.7100     81.3000     -0.0070   -999.0000   -999.0000 
  -999.0000 
  7995.0000 
     8.1700      2.3510      0.2240    -16.3100     53.2300      2.9800 
     2.4900      1.9700     81.7000     -0.0010     31.4600      0.2050 
     2.6600 
  7995.5000 
     8.1800      2.3960      0.2460    -17.0100     65.7700      3.4000 
     2.8500      2.3900     81.4000      0.0070   -999.0000   -999.0000 
  -999.0000 
  7996.0000 
     8.2000      2.4180      0.2490    -17.9400     87.3100      3.7600 
     3.2000      2.7400     81.0000      0.0100     19.2500      0.2150 
     2.6600 
  7996.5000 
     8.2400      2.4360      0.2550    -18.5600     87.3400      3.9900 
     3.5100      2.9200     81.0000      0.0170   -999.0000      0.0940 
     2.6900 
  7997.0000 
     8.2900      2.4880      0.2580    -18.8600     87.7400      3.9800 
     3.7100      3.0900     81.6400      0.0250   -999.0000   -999.0000 
  -999.0000 
  7997.5000 
     8.4100      2.4860      0.2620    -19.0100     98.9700      3.9600 
     3.7100      3.2800     81.1000      0.0040      0.7800      0.1600 
     2.6800 
  7998.0000 
     8.4300      2.5110      0.2570    -18.7800    104.9800      4.1100 
     3.7300      3.4800     80.6500      0.0080      1.1900      0.0980 
     2.6800 
  7998.5000 
     8.4700      2.4950      0.2460    -18.5400    106.9600      4.2200 
     3.8500      3.5400     80.9500      0.0150   -999.0000   -999.0000 
  -999.0000 
  7999.0000 
     8.4900      2.4420      0.2400    -18.1000    104.7400      3.7100 
     3.8400      3.2900     81.0000      0.0130   -999.0000      0.1270 
     2.6900 
  7999.5000 
     8.4900      2.3830      0.2180    -17.5800     85.1500      3.1700 
     3.3700      2.9000     81.1500      0.0120   -999.0000   -999.0000 
  -999.0000 
  8000.0000 
     8.4000      2.3370      0.1940    -16.7400     64.6300      2.7700 
     2.9400      2.5000     81.2500      0.0050      4.8100      0.1460 
     2.6800 
  8000.5000 
     8.3200      2.3210      0.1830    -15.9900     56.3600      2.3700 
     2.5700      2.1100     80.9000      0.0090   -999.0000   -999.0000 
  -999.0000 
  8001.0000 
     8.2000      2.3100      0.1920    -15.0100     51.2100      2.0500 
     2.2100      1.7800     80.3500      0.0100     44.4000      0.2220 
     2.6500 
  8001.5000 
     8.1700      2.2890      0.1920    -14.2700     44.6100      1.9000 
     1.9500      1.5100     80.0000      0.0020   -999.0000   -999.0000 
  -999.0000 
  8002.0000 
     8.1800      2.2770      0.1750    -12.9000     34.1800      1.7600 
     1.8100      1.3100     79.8500     -0.0040    103.1000      0.2190 
     2.6500 
  8002.5000 
     8.1800      2.2900      0.1590    -12.0900     26.6900      1.7400 
     1.7000      1.1900     79.2500      0.0060   -999.0000   -999.0000 
  -999.0000 
  8003.0000 
     8.1800      2.2840      0.1600    -11.3400     21.5400      1.7800 
     1.6900      1.1700     78.5000      0.0020   -999.0000   -999.0000 
  -999.0000 
  8003.5000 
     8.1800      2.3080      0.1620    -10.8300     17.8200      1.8300 
     1.7200      1.2100     77.9000      0.0030   -999.0000   -999.0000 
  -999.0000 
  8004.0000 
     8.1700      2.3050      0.1650    -10.2900     20.6800      1.9200 
     1.7700      1.2600     77.9000      0.0060   1024.0000      0.2370 
     2.6500 
  8004.5000 
     8.1800      2.2940      0.1630     -9.8900     20.0300      1.9800 
     1.8300      1.2900     77.9500      0.0000   -999.0000   -999.0000 
  -999.0000 
  8005.0000 
     8.1800      2.3120      0.1570     -9.6400     20.9500      1.9200 
     1.8600      1.3200     78.3000      0.0010     60.9300      0.1650 
     2.8100 
  8005.5000 
     8.1700      2.2860      0.1480     -9.4300     21.9400      2.0600 
     1.8300      1.3500     78.4000     -0.0150    325.0000      0.2210 
     2.6500 
  8006.0000 
     8.1800      2.2990      0.1430     -9.3600     23.2700      2.1000 
     1.9200      1.4200     78.1500     -0.0110   -999.0000   -999.0000 
  -999.0000 
  8006.5000 
     8.1800      2.3130      0.1450     -9.3100     21.8400      2.1700 
     1.9400      1.4900     77.4000     -0.0020   -999.0000   -999.0000 
  -999.0000 
  8007.0000 
     8.1800      2.3230      0.1500     -9.3400     21.0400      2.3400 
     2.0100      1.5500     77.4000      0.0000   -999.0000   -999.0000 
  -999.0000 
  8007.5000 
     8.1800      2.3420      0.1550     -9.4700     22.8300      2.3900 
     2.1300      1.5900     77.3500      0.0000   -999.0000   -999.0000 
  -999.0000 
  8008.0000 
     8.1700      2.3430      0.1540     -9.6500     24.4400      2.4300 
     2.1600      1.6300     77.4500      0.0000    132.0000      0.2050 
     2.6800 
  8008.5000 
     8.1800      2.3400      0.1550     -9.7900     28.9500      2.5000 
     2.1900      1.6800     77.9500      0.0030   -999.0000   -999.0000 
  -999.0000 
  8009.0000 
     8.1800      2.3420      0.1530     -9.9400     28.8200      2.4400 
     2.2200      1.7400     78.4500      0.0010   -999.0000   -999.0000 
  -999.0000 
  8009.5000 
     8.1800      2.3510      0.1560     -9.9500     27.9200      2.3300 
     2.1500      1.7100     78.7000      0.0000    132.2000      0.2100 
     2.6700 
  8010.0000 
     8.1700      2.3370      0.1550     -9.9900     26.5700      2.3100 
     2.0800      1.6000     78.8000      0.0030     96.7000      0.2060 
     2.6500 
  8010.5000 
     8.1700      2.3210      0.1450    -10.0000     21.9900      2.3100 
     2.0600      1.5000     78.5000      0.0010   -999.0000   -999.0000 
  -999.0000 
  8011.0000 
     8.1800      2.3490      0.1380    -10.2400     21.4500      2.2800 
     2.0500      1.4600     78.2000      0.0070   -999.0000   -999.0000 
  -999.0000 
  8011.5000 
     8.1700      2.3310      0.1480    -10.1900     20.1700      2.2700 
     2.0200      1.4300     78.4000      0.0070    441.4000      0.1820 
     2.6500 
  8012.0000 
     8.1800      2.3160      0.1580    -10.2200     23.3600      2.2100 
     2.0100      1.4200     78.8000      0.0070    193.8000      0.2130 
     2.6500 
  8012.5000 
     8.1700      2.3060      0.1630    -10.3600     25.5500      2.1300 
     1.9600      1.3900     79.7000      0.0050   -999.0000   -999.0000 
  -999.0000 
  8013.0000 
     8.1700      2.3170      0.1690    -10.3200     26.9800      2.1100 
     1.9000      1.3700     80.5500      0.0000   -999.0000   -999.0000 
  -999.0000 
