~VERSION INFORMATION
 VERS.                 2.0:   CWLS LOG ASCII STANDARD - VERSION 2.0
 WRAP.                 YES:   MULTIPLE LINES PER DEPTH STEP
~WELL INFORMATION
#MNEM.UNIT       DATA           DESCRIPTION MNEMONIC
#---------    -------------   --------------------------
 STRT.FT          7615.0000:   START DEPTH
 STOP.FT          8738.0000:   STOP DEPTH
 STEP.FT             0.5000:   STEP VALUE
 NULL.                                -999.0000:   NULL VALUE
 COMP. PGL                                     : COMPANY
 WELL. Test Well 1                             : WELL
 FLD . Somewhere                               : FIELD
 LOC .                                         : LOCATION
 PROV.                                         : PROVINCE
 SRVC. SCH                                     : SERVICE COMPANY
 DATE. 1 Jan 1999                              : LOG DATE
 UWI .                                         : UNIQUE WELL ID
~CURVE INFORMATION
#MNEM          UNIT     API CODE   Curve Type
#---------- ---------- ----------  ----------
 DEPTH     .FT                   : Depth     
 CALI      .IN                   : Caliper   
 RHOB      .G/C3                 : Density   
 TNPH      .DEC                  : Neutron   
 SP        .MV                   : SP        
 SGR       .GAPI                 : GammaRay  
 LLD       .OHMM                 : DeepRes   
 LLS       .OHMM                 : MedRes    
 MSFLC     .OHMM                 : MicroRes  
 DTLN      .US/F                 : Sonic     
 DRHO      .G/C3                 : Drho      
 PERMCORE  .MD                   : CORE      
 PHICORE   .FRAC                 : CORE      
 GDCORE    .KGDM                 : CORE      
~P Interactive Petrophysics parameters
#Name        Value                 Description
#----- --------------------------  -----------
 COUNT.     UK                   : Country
 STATE.     North Sea            : State
 PDAT .     MSL                  : Permanent Datum
 EPDAT.     0.0ft                : Elevation of the Permanent datum
 LGMEA.     KB                   : Log Measured from
 DRMEA.     DF                   : Drilling Measured from
 LGMEA.     KB                   : Log Measured from
 APDAT.     60ft                 : Elevation above Permanent dataum log Measured from
 KB   .     60ft                 : KB elevation
 DF   .     59ft                 : DF elevation
 GL   .     -200ft               : GL elevation
 TLINT.     7614ft               : Top logged interval
 BLINT.     8730ft               : Bottom logged interval
 CONT .     SCH                  : Logging Contractor
 RMS  .ohmm 0.2                  : Mud resistivity
 RMFS .ohmm 0.15                 : Mud filtrate resistivity
 RMCS .ohmm 0.3                  : Mud cake resistivity
 RW   .ohmm 0.1                  : Formation resistivity
 MST  .F    60.                  : Mud resistivity temperature
 MFST .F    60.                  : Mud filtrate resistivity temperature
 MCST .F    60.                  : Mud cake resistivity temperature
 RWT  .F    60.                  : Formation resistivity temperature
~A Log data section
# ...
  7919.5000 
     8.2000      2.2750      0.2050    -21.2700     39.9000      5.5100 
     4.1700      2.3500     83.6000      0.0020    137.4000      0.2350 
     2.6500 
  7920.0000 
     8.1800      2.2680      0.2040    -21.9100     39.1000      5.3600 
     4.0100      2.1700     82.8100     -0.0060   -999.0000   -999.0000 
  -999.0000 
  7920.5000 
     8.1800      2.2860      0.2020    -22.8300     41.8100      5.3600 
     3.9800      2.2200     83.6500     -0.0090   -999.0000   -999.0000 
  -999.0000 
  7921.0000 
     8.1900      2.3210      0.2140    -23.2900     50.3000      5.4100 
     4.0300      2.4100     84.7900      0.0030     14.2800      0.1990 
     2.6500 
  7921.5000 
     8.2300      2.3220      0.2370    -24.1500     55.5300      5.3600 
     4.0900      2.6300     83.7600      0.0120   -999.0000   -999.0000 
  -999.0000 
  7922.0000 
     8.2500      2.3670      0.2630    -24.8800     58.0500      5.0000 
     4.0000      2.7200     84.5000      0.0490     65.6100      0.2210 
     2.6500 
  7922.5000 
     8.3800      2.4450      0.2910    -26.2100     75.2900      4.5800 
     3.7700      2.5800     84.6500      0.0860      0.9200      0.1920 
     2.6700 
  7923.0000 
     8.5400      2.4470      0.3120    -27.1800     90.8900      4.2700 
     3.5700      2.2500     84.2600      0.0540   -999.0000   -999.0000 
  -999.0000 
  7923.5000 
     8.6100      2.5020      0.3280    -27.9400     99.8900      4.0400 
     3.4300      2.1600     85.1000      0.0110   -999.0000   -999.0000 
  -999.0000 
  7924.0000 
     8.6100      2.5240      0.3290    -29.3200    105.6200      3.9100 
     3.3500      2.3000     86.1000      0.0090    550.0000      0.1630 
     2.6800 
  7924.5000 
     8.6100      2.4890      0.3050    -30.6100    105.7100      3.8600 
     3.3400      2.6400     85.7000      0.0090   -999.0000   -999.0000 
  -999.0000 
  7925.0000 
     8.6100      2.4720      0.2890    -30.3600    102.6400      3.7000 
     3.3000      2.8100     86.3500      0.0270     46.6300      0.1570 
     2.6800 
  7925.5000 
     8.6100      2.4570      0.2970    -30.9400     99.6700      3.5500 
     3.2200      2.5900     87.1500      0.0330   -999.0000   -999.0000 
  -999.0000 
  7926.0000 
     8.6100      2.4510      0.3060    -31.7500     96.8600      3.5000 
     3.1700      2.3800     86.0000      0.0080     25.9100      0.1790 
     2.6900 
  7926.5000 
     8.6100      2.4830      0.3040    -31.6000     93.6900      3.5100 
     3.1800      2.3600     85.6500     -0.0030   -999.0000   -999.0000 
  -999.0000 
  7927.0000 
     8.6100      2.5040      0.3050    -31.9400     99.6400      3.6400 
     3.2800      2.5200     84.7500      0.0010      1.3500      0.1590 
     2.6800 
  7927.5000 
     8.6100      2.5020      0.3140    -31.8500    105.3100      3.8100 
     3.4300      2.7900     84.2000      0.0000   -999.0000   -999.0000 
  -999.0000 
  7928.0000 
     8.3700      2.5420      0.3630    -23.3400    122.0300      2.8000 
     3.1500      2.6600     84.1000      0.0420   -999.0000   -999.0000 
  -999.0000 
  7928.5000 
     8.3600      2.4910      0.2900    -22.8200    117.0800      2.8100 
     3.0300      2.4200     82.7500      0.0540   -999.0000   -999.0000 
  -999.0000 
  7929.0000 
     8.3100      2.4210      0.2280    -22.0300    101.4000      2.8300 
     3.0500      2.1600     81.8000      0.0460   -999.0000   -999.0000 
  -999.0000 
  7929.5000 
     8.2300      2.3680      0.1940    -21.3300     85.2700      2.8100 
     3.0700      2.0300     81.1000      0.0280   -999.0000      0.0990 
     2.6900 
  7930.0000 
     8.1300      2.3720      0.1920    -20.8100     69.6500      2.9300 
     3.0900      2.0600     79.8500      0.0270     33.8500      0.2280 
     2.6700 
  7930.5000 
     8.1400      2.3980      0.2070    -20.2700     61.7000      2.9800 
     3.1700      2.1700     79.8500      0.0420   -999.0000   -999.0000 
  -999.0000 
  7931.0000 
     8.1500      2.3960      0.2160    -20.1000     62.0800      2.8800 
     3.1700      2.1800     79.7000      0.0430   -999.0000   -999.0000 
  -999.0000 
  7931.5000 
     8.1700      2.3720      0.2080    -19.9300     60.3400      2.7600 
     3.0400      2.0800     79.6000      0.0280   -999.0000   -999.0000 
  -999.0000 
  7932.0000 
     8.1800      2.3630      0.1900    -19.6100     54.8700      2.6000 
     2.8900      1.9400     79.6000      0.0100      2.2400      0.2140 
     2.6600 
  7932.5000 
     8.1700      2.3560      0.1790    -19.3300     44.6000      2.5200 
     2.7300      1.8000     79.4000      0.0070   -999.0000   -999.0000 
  -999.0000 
  7933.0000 
     8.1400      2.3320      0.1870    -19.3500     43.4100      2.6000 
     2.6700      1.7700     80.5500      0.0040     70.0500      0.2050 
     2.6500 
  7933.5000 
     8.1500      2.3580      0.1970    -19.4000     39.9200      2.8200 
     2.7700      1.9300     80.2000      0.0070   -999.0000   -999.0000 
  -999.0000 
  7934.0000 
     8.1500      2.3990      0.2020    -20.0400     46.2500      3.1200 
     3.0000      2.2700     79.9500      0.0130   -999.0000   -999.0000 
  -999.0000 
  7934.5000 
     8.1600      2.4300      0.2130    -20.4800     61.1600      3.4800 
     3.3000      2.6400     80.7000      0.0270     65.5800      0.2100 
     2.6800 
  7935.0000 
     8.1700      2.4460      0.2250    -20.6800     71.1100      3.6100 
     3.5700      2.8500     80.1000      0.0480   -999.0000      0.1820 
     2.6800 
  7935.5000 
     8.2000      2.4670      0.2250    -20.8600     77.9400      3.5000 
     3.6300      2.8200     79.6000      0.0500   -999.0000   -999.0000 
  -999.0000 
  7936.0000 
     8.2500      2.4560      0.2230    -20.7700     92.4300      3.3500 
     3.5200      2.6200     80.1000      0.0340      0.5300      0.1470 
     2.6800 
  7936.5000 
     8.2100      2.4350      0.2160    -20.4800     93.9100      3.0700 
     3.3400      2.4100     79.5000      0.0270   -999.0000   -999.0000 
  -999.0000 
  7937.0000 
     8.1900      2.3780      0.1920    -19.7900     89.0300      2.6300 
     3.0200      2.1800     79.6000      0.0090   -999.0000   -999.0000 
  -999.0000 
  7937.5000 
     8.1500      2.3220      0.1730    -19.1200     68.4500      2.3800 
     2.6400      1.9100     80.1000     -0.0020      3.0600      0.1970 
     2.6800 
  7938.0000 
     8.0800      2.3210      0.1690    -18.5000     46.9600      2.2900 
     2.4300      1.6900     79.9000      0.0040   -999.0000   -999.0000 
  -999.0000 
  7938.5000 
     8.0800      2.3350      0.1760    -17.9600     36.1200      2.4900 
     2.4000      1.6200     79.7000      0.0080   -999.0000   -999.0000 
  -999.0000 
  7939.0000 
     8.0800      2.3680      0.1870    -17.8300     39.8900      2.9600 
     2.6500      1.7800     79.5500      0.0160    119.4000      0.2280 
     2.6500 
  7939.5000 
     8.0800      2.3770      0.1960    -17.8900     49.1700      3.3200 
     3.0600      2.1100     79.5100      0.0220   -999.0000   -999.0000 
  -999.0000 
  7940.0000 
     8.1100      2.3910      0.2070    -17.9400     60.0100      3.3600 
     3.3100      2.4200     80.7000      0.0320     63.1700      0.1890 
     2.6600 
  7940.5000 
     8.1100      2.3680      0.2180    -17.9000     62.7400      3.3700 
     3.3300      2.5600     80.9000      0.0230      8.6000      0.2120 
     2.6600 
  7941.0000 
     8.1100      2.3640      0.2220    -17.7400     63.5500      3.4600 
     3.3600      2.6400     81.0500      0.0120   -999.0000   -999.0000 
  -999.0000 
  7941.5000 
     8.1100      2.4540      0.2350    -17.6000     66.7500      3.6600 
     3.4500      2.8600     81.0000      0.0400   -999.0000   -999.0000 
  -999.0000 
  7942.0000 
     8.1300      2.5420      0.2600    -17.2500     77.2900      3.8000 
     3.6200      3.2800     80.4900      0.0880      3.1600      0.2090 
     2.6600 
  7942.5000 
     8.2600      2.5160      0.2680    -17.2200     89.3800      3.7500 
     3.9000      3.6100     79.0000      0.0710      0.4500      0.1900 
     2.6700 
