~VERSION INFORMATION
 VERS.                 2.0:   CWLS LOG ASCII STANDARD - VERSION 2.0
 WRAP.                 YES:   MULTIPLE LINES PER DEPTH STEP
~WELL INFORMATION
#MNEM.UNIT       DATA           DESCRIPTION MNEMONIC
#---------    -------------   --------------------------
 STRT.FT          7615.0000:   START DEPTH
 STOP.FT          8738.0000:   STOP DEPTH
 STEP.FT             0.5000:   STEP VALUE
 NULL.                                -999.0000:   NULL VALUE
 COMP. PGL                                     : COMPANY
 WELL. Test Well 1                             : WELL
 FLD . Somewhere                               : FIELD
 LOC .                                         : LOCATION
 PROV.                                         : PROVINCE
 SRVC. SCH                                     : SERVICE COMPANY
 DATE. 1 Jan 1999                              : LOG DATE
 UWI .                                         : UNIQUE WELL ID
~CURVE INFORMATION
#MNEM          UNIT     API CODE   Curve Type
#---------- ---------- ----------  ----------
 DEPTH     .FT                   : Depth     
 CALI      .IN                   : Caliper   
 RHOB      .G/C3                 : Density   
 TNPH      .DEC                  : Neutron   
 SP        .MV                   : SP        
 SGR       .GAPI                 : GammaRay  
 LLD       .OHMM                 : DeepRes   
 LLS       .OHMM                 : MedRes    
 MSFLC     .OHMM                 : MicroRes  
 DTLN      .US/F                 : Sonic     
 DRHO      .G/C3                 : Drho      
 PERMCORE  .MD                   : CORE      
 PHICORE   .FRAC                 : CORE      
 GDCORE    .KGDM                 : CORE      
~P Interactive Petrophysics parameters
#Name        Value                 Description
#----- --------------------------  -----------
 COUNT.     UK                   : Country
 STATE.     North Sea            : State
 PDAT .     MSL                  : Permanent Datum
 EPDAT.     0.0ft                : Elevation of the Permanent datum
 LGMEA.     KB                   : Log Measured from
 DRMEA.     DF                   : Drilling Measured from
 LGMEA.     KB                   : Log Measured from
 APDAT.     60ft                 : Elevation above Permanent dataum log Measured from
 KB   .     60ft                 : KB elevation
 DF   .     59ft                 : DF elevation
 GL   .     -200ft               : GL elevation
 TLINT.     7614ft               : Top logged interval
 BLINT.     8730ft               : Bottom logged interval
 CONT .     SCH                  : Logging Contractor
 RMS  .ohmm 0.2                  : Mud resistivity
 RMFS .ohmm 0.15                 : Mud filtrate resistivity
 RMCS .ohmm 0.3                  : Mud cake resistivity
 RW   .ohmm 0.1                  : Formation resistivity
 MST  .F    60.                  : Mud resistivity temperature
 MFST .F    60.                  : Mud filtrate resistivity temperature
 MCST .F    60.                  : Mud cake resistivity temperature
 RWT  .F    60.                  : Formation resistivity temperature
~A Log data section
# ...
  8413.0000 
     8.2700      2.3620      0.2450    -25.0000     78.7800      4.3600 
     3.6900      2.6800     83.5000      0.0040   -999.0000   -999.0000 
  -999.0000 
  8413.5000 
     8.2700      2.3660      0.2450    -25.7200     80.8300      4.2300 
     3.4900      2.5400     82.9500      0.0090   -999.0000   -999.0000 
  -999.0000 
  8414.0000 
     8.3000      2.3300      0.2100    -25.8800     75.1600      4.3200 
     3.4700      2.4400     82.9000      0.0110      6.3100      0.2030 
     2.6700 
  8414.5000 
     8.2500      2.3230      0.1820    -26.1000     54.1800      4.4800 
     3.5800      2.4600     82.4500      0.0130      2.7400      0.1490 
     2.6900 
  8415.0000 
     8.2400      2.3110      0.1730    -26.1900     36.6000      4.6400 
     3.7300      2.4800     81.5100      0.0040   -999.0000   -999.0000 
  -999.0000 
  8415.5000 
     8.2400      2.3130      0.1810    -26.2300     32.3000      4.7800 
     3.8900      2.5400     81.8000      0.0080     44.0200      0.2160 
     2.6600 
  8416.0000 
     8.2400      2.3570      0.1990    -26.4400     40.0800      4.7800 
     3.9800      2.6900     81.8000      0.0260   -999.0000   -999.0000 
  -999.0000 
  8416.5000 
     8.2600      2.3810      0.2080    -26.8900     53.6600      4.6900 
     3.9900      2.9100     81.4500      0.0220     91.8300      0.2070 
     2.6600 
  8417.0000 
     8.2700      2.3620      0.2050    -27.3900     55.0800      4.6100 
     3.9900      3.0100     81.8000      0.0100   -999.0000   -999.0000 
  -999.0000 
  8417.5000 
     8.2700      2.3600      0.2030    -27.9100     53.0900      4.4600 
     3.9500      3.1100     82.3000      0.0040      8.0600      0.1930 
     2.6700 
  8418.0000 
     8.2800      2.4210      0.2220    -28.4700     64.3100      4.2500 
     3.8500      3.0500     82.6500      0.0160   -999.0000   -999.0000 
  -999.0000 
  8418.5000 
     8.3000      2.4840      0.2540    -28.9900     76.1500      4.1200 
     3.7500      2.9400     83.1000      0.0500   -999.0000   -999.0000 
  -999.0000 
  8419.0000 
     8.4100      2.4570      0.2760    -29.3800     87.5700      3.9300 
     3.6600      2.7500     83.2100      0.0430     22.7800      0.1970 
     2.6600 
  8419.5000 
     8.5300      2.4180      0.2850    -29.6000     92.5500      3.7400 
     3.5300      2.5900     84.3500      0.0180      2.5300      0.2080 
     2.6800 
  8420.0000 
     8.5400      2.4420      0.2890    -29.6900     96.1800      3.7300 
     3.4600      2.4400     84.1000      0.0280   -999.0000   -999.0000 
  -999.0000 
  8420.5000 
     8.5400      2.4540      0.2780    -29.6400     97.5600      3.7700 
     3.4500      2.4700     84.3500      0.0330   -999.0000   -999.0000 
  -999.0000 
  8421.0000 
     8.5200      2.4570      0.2640    -29.4300     93.2900      3.7700 
     3.3200      2.4400     84.9000      0.0220    289.3000      0.1640 
     2.7100 
  8421.5000 
     8.5200      2.4010      0.2570    -29.1100     91.8900      3.7200 
     3.1100      2.3500     85.2000      0.0090   -999.0000   -999.0000 
  -999.0000 
  8422.0000 
     8.5100      2.3580      0.2550    -28.5900     85.7300      3.6700 
     3.0100      2.1300     85.1500      0.0080    107.0000      0.1880 
     2.7000 
  8422.5000 
     8.4600      2.3650      0.2620    -28.0000     79.3300      3.7600 
     3.0100      2.0400     85.3900      0.0090   -999.0000   -999.0000 
  -999.0000 
  8423.0000 
     8.4000      2.3910      0.2800    -27.2500     85.0100      3.9800 
     3.2000      2.1600     83.6500      0.0110      0.7300      0.2060 
     2.6900 
  8423.5000 
     8.4100      2.4430      0.2790    -26.3900     91.6800      4.4400 
     3.6200      2.4700     84.1000      0.0350   -999.0000   -999.0000 
  -999.0000 
  8424.0000 
     8.4200      2.4400      0.2490    -25.6800     93.3400      5.1500 
     4.1500      2.7700     83.6100      0.0280   -999.0000   -999.0000 
  -999.0000 
  8424.5000 
     8.4100      2.3510      0.2140    -24.8100     92.5500      5.8400 
     4.6800      3.0000     85.1600      0.0000      0.7800      0.2170 
     2.6800 
  8425.0000 
     8.3300      2.2390      0.1920    -24.0600     63.8900      6.1200 
     5.0100      3.2300     85.9900     -0.0120   -999.0000   -999.0000 
  -999.0000 
  8425.5000 
     8.2000      2.1990      0.1810    -23.1600     37.1700      5.9400 
     5.0200      3.4800     84.6000     -0.0060     22.0500      0.0960 
     2.6700 
  8426.0000 
     8.1800      2.2130      0.1770    -22.4400     27.7000      5.5200 
     4.7500      3.3800     83.9000     -0.0050   -999.0000   -999.0000 
  -999.0000 
  8426.5000 
     8.1700      2.2550      0.1760    -21.9400     26.6500      5.0500 
     4.3800      3.0900     83.0500     -0.0010   -999.0000   -999.0000 
  -999.0000 
  8427.0000 
     8.1800      2.2680      0.1820    -21.3900     32.2500      4.8300 
     4.0900      2.5900     82.7000     -0.0040    490.8000      0.2330 
     2.6600 
  8427.5000 
     8.1800      2.2780      0.1990    -21.1700     35.9800      4.9500 
     4.0100      2.3300     82.4000     -0.0120   -999.0000   -999.0000 
  -999.0000 
  8428.0000 
     8.1700      2.3150      0.2120    -21.0000     44.4700      5.4100 
     4.1900      2.3200     83.2000     -0.0060   -999.0000   -999.0000 
  -999.0000 
  8428.5000 
     8.2100      2.3570      0.2020    -21.1200     56.8400      5.9200 
     4.5300      2.5200     83.2500      0.0060   1525.0000      0.2680 
     2.6600 
  8429.0000 
     8.2100      2.3190      0.1830    -20.9000     49.1300      6.1800 
     4.8000      2.7800     83.4000      0.0060   -999.0000   -999.0000 
  -999.0000 
  8429.5000 
     8.1900      2.2850      0.1720    -20.7100     36.7300      6.1900 
     4.8800      2.9200     83.6900      0.0010     74.0100      0.2120 
     2.6600 
  8430.0000 
     8.1800      2.2810      0.1680    -20.4000     30.1000      6.0500 
     4.8200      2.8100     82.3000      0.0050   -999.0000   -999.0000 
  -999.0000 
  8430.5000 
     8.1800      2.2790      0.1680    -20.2700     24.8900      5.6800 
     4.6300      2.5400     81.5500      0.0040   -999.0000   -999.0000 
  -999.0000 
  8431.0000 
     8.1800      2.2610      0.1650    -20.1600     22.1000      5.3400 
     4.3600      2.2900     81.4000      0.0010   1782.0000      0.2610 
     2.6600 
  8431.5000 
     8.1800      2.2940      0.1620    -20.2000     18.3800      5.1900 
     4.1700      2.1700     81.7000      0.0030   -999.0000   -999.0000 
  -999.0000 
  8432.0000 
     8.1800      2.3160      0.1600    -20.0800     21.5900      5.0700 
     4.0800      2.1200     81.8000      0.0060    544.1000      0.2160 
     2.6500 
  8432.5000 
     8.1800      2.2940      0.1650    -20.1600     25.8300      4.9400 
     4.0100      2.1400     82.3000      0.0060   -999.0000   -999.0000 
  -999.0000 
  8433.0000 
     8.1800      2.3040      0.1750    -20.2900     29.4500      4.8300 
     3.9600      2.1500     82.4000      0.0090   1516.0000      0.2270 
     2.6600 
  8433.5000 
     8.1800      2.3050      0.1820    -20.4600     33.9600      4.7500 
     3.9400      2.1500     82.1100      0.0080    224.1000      0.2370 
     2.6600 
  8434.0000 
     8.1800      2.3030      0.1910    -20.7400     43.3300      4.7400 
     3.9500      2.1900     83.0500      0.0040   -999.0000   -999.0000 
  -999.0000 
  8434.5000 
     8.1800      2.3330      0.1900    -20.9800     49.6300      4.7900 
     4.0000      2.2400     82.2000      0.0100    113.5000      0.2160 
     2.6800 
  8435.0000 
     8.1800      2.3180      0.1820    -21.3200     44.7600      4.8500 
     4.1000      2.4000     81.9000      0.0110   -999.0000   -999.0000 
  -999.0000 
  8435.5000 
     8.2400      2.3170      0.1790    -21.5900     41.8800      4.8100 
     4.1900      2.6200     81.7000      0.0050   -999.0000   -999.0000 
  -999.0000 
  8436.0000 
     8.2400      2.3220      0.1860    -21.9300     49.3300      4.5800 
     4.1600      2.8200     81.3500      0.0030     11.8900      0.2030 
     2.6500 
