~VERSION INFORMATION
 VERS.                 2.0:   CWLS LOG ASCII STANDARD - VERSION 2.0
 WRAP.                 YES:   MULTIPLE LINES PER DEPTH STEP
~WELL INFORMATION
#MNEM.UNIT       DATA           DESCRIPTION MNEMONIC
#---------    -------------   --------------------------
 STRT.FT          7615.0000:   START DEPTH
 STOP.FT          8738.0000:   STOP DEPTH
 STEP.FT             0.5000:   STEP VALUE
 NULL.                                -999.0000:   NULL VALUE
 COMP. PGL                                     : COMPANY
 WELL. Test Well 1                             : WELL
 FLD . Somewhere                               : FIELD
 LOC .                                         : LOCATION
 PROV.                                         : PROVINCE
 SRVC. SCH                                     : SERVICE COMPANY
 DATE. 1 Jan 1999                              : LOG DATE
 UWI .                                         : UNIQUE WELL ID
~CURVE INFORMATION
#MNEM          UNIT     API CODE   Curve Type
#---------- ---------- ----------  ----------
 DEPTH     .FT                   : Depth     
 CALI      .IN                   : Caliper   
 RHOB      .G/C3                 : Density   
 TNPH      .DEC                  : Neutron   
 SP        .MV                   : SP        
 SGR       .GAPI                 : GammaRay  
 LLD       .OHMM                 : DeepRes   
 LLS       .OHMM                 : MedRes    
 MSFLC     .OHMM                 : MicroRes  
 DTLN      .US/F                 : Sonic     
 DRHO      .G/C3                 : Drho      
 PERMCORE  .MD                   : CORE      
 PHICORE   .FRAC                 : CORE      
 GDCORE    .KGDM                 : CORE      
~P Interactive Petrophysics parameters
#Name        Value                 Description
#----- --------------------------  -----------
 COUNT.     UK                   : Country
 STATE.     North Sea            : State
 PDAT .     MSL                  : Permanent Datum
 EPDAT.     0.0ft                : Elevation of the Permanent datum
 LGMEA.     KB                   : Log Measured from
 DRMEA.     DF                   : Drilling Measured from
 LGMEA.     KB                   : Log Measured from
 APDAT.     60ft                 : Elevation above Permanent dataum log Measured from
 KB   .     60ft                 : KB elevation
 DF   .     59ft                 : DF elevation
 GL   .     -200ft               : GL elevation
 TLINT.     7614ft               : Top logged interval
 BLINT.     8730ft               : Bottom logged interval
 CONT .     SCH                  : Logging Contractor
 RMS  .ohmm 0.2                  : Mud resistivity
 RMFS .ohmm 0.15                 : Mud filtrate resistivity
 RMCS .ohmm 0.3                  : Mud cake resistivity
 RW   .ohmm 0.1                  : Formation resistivity
 MST  .F    60.                  : Mud resistivity temperature
 MFST .F    60.                  : Mud filtrate resistivity temperature
 MCST .F    60.                  : Mud cake resistivity temperature
 RWT  .F    60.                  : Formation resistivity temperature
~A Log data section
# ...
  8507.0000 
     8.1400      2.3250      0.1950    -12.9500     35.1800      1.9000 
     1.5900      1.3200     81.8900      0.0040   -999.0000   -999.0000 
  -999.0000 
  8507.5000 
     8.1500      2.3180      0.1850    -12.6800     37.0000      2.1300 
     1.8500      1.5000     80.5100      0.0090   -999.0000   -999.0000 
  -999.0000 
  8508.0000 
     8.1500      2.2850      0.1800    -12.2300     34.1700      2.1400 
     1.9700      1.5200     81.0000      0.0060    233.6000      0.2190 
     2.6500 
  8508.5000 
     8.1500      2.2960      0.1730    -12.0800     25.8700      2.0700 
     1.9600      1.4600     80.5500      0.0020   -999.0000   -999.0000 
  -999.0000 
  8509.0000 
     8.1500      2.3160      0.1650    -11.8100     25.7500      2.0600 
     1.9200      1.3900     79.9000      0.0000   -999.0000   -999.0000 
  -999.0000 
  8509.5000 
     8.1400      2.3010      0.1570    -11.9400     25.8600      2.1700 
     1.9500      1.3800     79.2400     -0.0040    336.2000      0.2250 
     2.6500 
  8510.0000 
     8.1500      2.3030      0.1520    -11.6700     24.0800      2.2100 
     2.0100      1.4600     77.6000     -0.0020   -999.0000   -999.0000 
  -999.0000 
  8510.5000 
     8.1500      2.3050      0.1520    -11.4100     18.6900      2.2100 
     2.0100      1.5700     77.2500      0.0030    488.8000      0.2230 
     2.6400 
  8511.0000 
     8.1500      2.3160      0.1580    -11.2400     15.4600      2.2500 
     2.0100      1.6100     78.1000      0.0080   -999.0000   -999.0000 
  -999.0000 
  8511.5000 
     8.1500      2.3410      0.1630    -10.9400     15.7100      2.1000 
     1.9500      1.6400     78.3000      0.0130   -999.0000   -999.0000 
  -999.0000 
  8512.0000 
     8.1500      2.3030      0.1680    -10.6600     15.9400      1.9500 
     1.8000      1.5900     78.9000      0.0100   1230.0000      0.2260 
     2.6500 
  8512.5000 
     8.1500      2.2950      0.1750    -10.3300     14.7000      1.8300 
     1.6700      1.4800     79.5500      0.0070   -999.0000   -999.0000 
  -999.0000 
  8513.0000 
     8.1400      2.2750      0.1750    -10.1700     15.0200      1.6500 
     1.5300      1.3800     80.3000      0.0000   -999.0000   -999.0000 
  -999.0000 
  8513.5000 
     8.1400      2.2460      0.1740    -10.0800     14.9700      1.6400 
     1.4200      1.2200     80.5500     -0.0040   -999.0000   -999.0000 
  -999.0000 
  8514.0000 
     8.1500      2.2520      0.1790     -9.9200     16.2600      1.9000 
     1.4900      1.2400     79.9500      0.0040   -999.0000   -999.0000 
  -999.0000 
  8514.5000 
     8.1400      2.3100      0.1890     -9.8800     18.4300      2.1200 
     1.6600      1.6500     80.5000      0.0150   -999.0000   -999.0000 
  -999.0000 
  8515.0000 
     8.1500      2.3960      0.2010     -9.8600     29.4400      2.2700 
     1.7900      2.1900     80.4000      0.0300    602.4000      0.2230 
     2.6500 
  8515.5000 
     8.1500      2.3670      0.2030     -9.8400     43.7200      2.2200 
     1.8400      2.2800     81.3100      0.0210      2.8300      0.0930 
     2.6900 
  8516.0000 
     8.1100      2.2910      0.1910     -9.8900     37.2200      1.8100 
     1.7000      2.0400     82.8000      0.0070   -999.0000   -999.0000 
  -999.0000 
  8516.5000 
     8.1100      2.2770      0.1870     -9.7500     25.6800      1.5300 
     1.4300      1.3900     82.9500      0.0090   -999.0000   -999.0000 
  -999.0000 
  8517.0000 
     8.1100      2.2630      0.1900     -9.7500     20.7000      1.4300 
     1.2500      0.9900     83.4000      0.0110   1249.0000      0.2470 
     2.6500 
  8517.5000 
     8.1100      2.2530      0.1970     -9.7500     15.8900      1.3800 
     1.1900      0.8900     83.6000      0.0080   -999.0000   -999.0000 
  -999.0000 
  8518.0000 
     8.1100      2.2430      0.1970     -9.7500     17.0400      1.3700 
     1.1600      0.8500     83.7500      0.0050   -999.0000   -999.0000 
  -999.0000 
  8518.5000 
     8.1100      2.2560      0.1950     -9.8400     16.9600      1.3800 
     1.1500      0.8200     84.1000      0.0030   1400.0000      0.2590 
     2.6700 
  8519.0000 
     8.1100      2.2230      0.1980    -10.1600     18.6500      1.4600 
     1.1800      0.8100     83.8000      0.0040   -999.0000   -999.0000 
  -999.0000 
  8519.5000 
     8.1100      2.2400      0.1930    -10.3100     17.4000      1.6000 
     1.2600      0.8500     82.0900      0.0090   1065.0000      0.2630 
     2.6600 
  8520.0000 
     8.1100      2.2540      0.1910    -10.4900     18.1300      1.7400 
     1.3600      0.9600     81.2500      0.0140   -999.0000   -999.0000 
  -999.0000 
  8520.5000 
     8.1100      2.2680      0.1880    -10.4800     24.8000      1.8300 
     1.4500      1.1100     81.1000      0.0130   1211.0000      0.2760 
     2.6500 
  8521.0000 
     8.1100      2.2730      0.1880    -10.6200     26.6800      1.8500 
     1.5000      1.1800     81.2500      0.0100   -999.0000   -999.0000 
  -999.0000 
  8521.5000 
     8.1100      2.2660      0.1890    -10.6100     28.3300      1.8400 
     1.5000      1.1900     80.8500      0.0040   -999.0000   -999.0000 
  -999.0000 
  8522.0000 
     8.1100      2.2980      0.1860    -10.5300     26.3500      1.8400 
     1.4900      1.1400     80.9000      0.0130    391.9000      0.2440 
     2.6500 
  8522.5000 
     8.1100      2.3080      0.1870    -10.3600     25.8600      1.8000 
     1.4700      1.1400     81.2500      0.0200   -999.0000   -999.0000 
  -999.0000 
  8523.0000 
     8.1100      2.2760      0.1920    -10.1200     25.5900      1.7200 
     1.4300      1.1400     81.8100      0.0130   -999.0000   -999.0000 
  -999.0000 
  8523.5000 
     8.1100      2.2600      0.2030    -10.0700     22.3000      1.5900 
     1.3500      1.0900     83.0100      0.0100   -999.0000   -999.0000 
  -999.0000 
  8524.0000 
     8.1100      2.2320      0.2140     -9.8600     21.1700      1.4400 
     1.2400      1.0000     84.5500      0.0050    766.5000      0.2610 
     2.6500 
  8524.5000 
     8.1100      2.2300      0.2250     -9.7700     18.4200      1.3400 
     1.1400      0.8900     86.1400      0.0130   -999.0000   -999.0000 
  -999.0000 
  8525.0000 
     8.1100      2.2110      0.2300     -9.6300     21.8100      1.2600 
     1.0600      0.8000     87.5100      0.0150   -999.0000   -999.0000 
  -999.0000 
  8525.5000 
     8.1100      2.1890      0.2360     -9.6300     19.3000      1.1900 
     1.0100      0.7100     89.4000      0.0100   1319.0000      0.2980 
     2.6500 
  8526.0000 
     8.1100      2.1930      0.2480     -9.6700     16.8400      1.1600 
     0.9600      0.6500     89.9000      0.0160   -999.0000   -999.0000 
  -999.0000 
  8526.5000 
     8.1100      2.2170      0.2490     -9.8600     15.2000      1.1300 
     0.9400      0.6100     90.5000      0.0460   -999.0000   -999.0000 
  -999.0000 
  8527.0000 
     8.1100      2.2100      0.2450    -10.0000     17.6700      1.1000 
     0.9100      0.6000     90.9000      0.0390   1449.0000      0.3010 
     2.6500 
  8527.5000 
     8.1100      2.1950      0.2400    -10.0400     16.5300      1.0800 
     0.8900      0.5900     90.2400      0.0240   -999.0000   -999.0000 
  -999.0000 
  8528.0000 
     8.1100      2.1980      0.2350    -10.1800     16.5400      1.1000 
     0.8900      0.5900     88.7000      0.0300   1382.0000      0.2990 
     2.6500 
  8528.5000 
     8.1100      2.2220      0.2280    -10.1800     19.0500      1.1500 
     0.9100      0.6100     87.4900      0.0330   -999.0000   -999.0000 
  -999.0000 
  8529.0000 
     8.1100      2.2450      0.2190    -10.3800     18.2900      1.2200 
     0.9600      0.6500     86.0000      0.0290   -999.0000   -999.0000 
  -999.0000 
  8529.5000 
     8.1100      2.2380      0.2060    -10.4100     22.4000      1.3000 
     1.0100      0.7000     84.5100      0.0130   1030.0000      0.2790 
     2.6700 
  8530.0000 
     8.1100      2.2200      0.1910    -10.5300     21.9500      1.4100 
     1.0800      0.7600     83.9000      0.0040   -999.0000   -999.0000 
  -999.0000 
