~VERSION INFORMATION
 VERS.                 2.0:   CWLS LOG ASCII STANDARD - VERSION 2.0
 WRAP.                 YES:   MULTIPLE LINES PER DEPTH STEP
~WELL INFORMATION
#MNEM.UNIT       DATA           DESCRIPTION MNEMONIC
#---------    -------------   --------------------------
 STRT.FT          7615.0000:   START DEPTH
 STOP.FT          8738.0000:   STOP DEPTH
 STEP.FT             0.5000:   STEP VALUE
 NULL.                                -999.0000:   NULL VALUE
 COMP. PGL                                     : COMPANY
 WELL. Test Well 1                             : WELL
 FLD . Somewhere                               : FIELD
 LOC .                                         : LOCATION
 PROV.                                         : PROVINCE
 SRVC. SCH                                     : SERVICE COMPANY
 DATE. 1 Jan 1999                              : LOG DATE
 UWI .                                         : UNIQUE WELL ID
~CURVE INFORMATION
#MNEM          UNIT     API CODE   Curve Type
#---------- ---------- ----------  ----------
 DEPTH     .FT                   : Depth     
 CALI      .IN                   : Caliper   
 RHOB      .G/C3                 : Density   
 TNPH      .DEC                  : Neutron   
 SP        .MV                   : SP        
 SGR       .GAPI                 : GammaRay  
 LLD       .OHMM                 : DeepRes   
 LLS       .OHMM                 : MedRes    
 MSFLC     .OHMM                 : MicroRes  
 DTLN      .US/F                 : Sonic     
 DRHO      .G/C3                 : Drho      
 PERMCORE  .MD                   : CORE      
 PHICORE   .FRAC                 : CORE      
 GDCORE    .KGDM                 : CORE      
~P Interactive Petrophysics parameters
#Name        Value                 Description
#----- --------------------------  -----------
 COUNT.     UK                   : Country
 STATE.     North Sea            : State
 PDAT .     MSL                  : Permanent Datum
 EPDAT.     0.0ft                : Elevation of the Permanent datum
 LGMEA.     KB                   : Log Measured from
 DRMEA.     DF                   : Drilling Measured from
 LGMEA.     KB                   : Log Measured from
 APDAT.     60ft                 : Elevation above Permanent dataum log Measured from
 KB   .     60ft                 : KB elevation
 DF   .     59ft                 : DF elevation
 GL   .     -200ft               : GL elevation
 TLINT.     7614ft               : Top logged interval
 BLINT.     8730ft               : Bottom logged interval
 CONT .     SCH                  : Logging Contractor
 RMS  .ohmm 0.2                  : Mud resistivity
 RMFS .ohmm 0.15                 : Mud filtrate resistivity
 RMCS .ohmm 0.3                  : Mud cake resistivity
 RW   .ohmm 0.1                  : Formation resistivity
 MST  .F    60.                  : Mud resistivity temperature
 MFST .F    60.                  : Mud filtrate resistivity temperature
 MCST .F    60.                  : Mud cake resistivity temperature
 RWT  .F    60.                  : Formation resistivity temperature
~A Log data section
# ...
  7825.5000 
     8.1900      2.2950      0.1850    -17.4000     45.3600      7.4700 
     6.6700      2.6200     84.6000      0.0250   -999.0000   -999.0000 
  -999.0000 
  7826.0000 
     8.1900      2.3270      0.1900    -17.3100     43.1100      8.2200 
     6.8700      2.6800     85.0000      0.0280   -999.0000   -999.0000 
  -999.0000 
  7826.5000 
     8.2000      2.3340      0.1960    -17.2500     40.7100      8.5200 
     7.0500      2.8900     85.5000      0.0390   -999.0000   -999.0000 
  -999.0000 
  7827.0000 
     8.1900      2.3270      0.1970    -17.1300     35.3500      8.3500 
     7.0800      3.2000     86.6400      0.0470   -999.0000   -999.0000 
  -999.0000 
  7827.5000 
     8.1800      2.3290      0.1970    -17.2500     36.3700      8.0100 
     6.9300      3.4400     86.9000      0.0450   -999.0000   -999.0000 
  -999.0000 
  7828.0000 
     8.1800      2.3220      0.1980    -17.6100     37.3100      7.2400 
     6.5600      3.4500     87.8100      0.0370   -999.0000   -999.0000 
  -999.0000 
  7828.5000 
     8.1800      2.3180      0.2150    -18.0000     45.6600      6.0800 
     6.0400      3.2400     89.3000      0.0280   -999.0000   -999.0000 
  -999.0000 
  7829.0000 
     8.2100      2.3330      0.2450    -18.5200     60.2100      5.2900 
     5.6100      2.8800     90.8000      0.0210   -999.0000   -999.0000 
  -999.0000 
  7829.5000 
     8.3000      2.3410      0.2840    -18.9700     76.9100      4.9400 
     5.2300      2.6300     90.6900      0.0160   -999.0000   -999.0000 
  -999.0000 
  7830.0000 
     8.4100      2.3600      0.3280    -19.3500     89.4400      4.5800 
     4.8300      2.3500     89.0100      0.0460   -999.0000   -999.0000 
  -999.0000 
  7830.5000 
     8.6200      2.4050      0.3620    -19.4900     95.9700      4.7300 
     4.7600      2.0200     89.1900      0.1170   -999.0000   -999.0000 
  -999.0000 
  7831.0000 
     8.8700      2.3770      0.3350    -19.5000     85.4100      5.4100 
     5.1900      1.6500     86.7600      0.0850   -999.0000   -999.0000 
  -999.0000 
  7831.5000 
     9.0900      2.2730      0.2440    -19.1800     64.7600      6.1400 
     5.7900      1.4600     85.0700     -0.0180   -999.0000   -999.0000 
  -999.0000 
  7832.0000 
     9.1900      2.3480      0.1830    -18.8300     44.5000      7.6800 
     6.5800      1.7900     88.2800     -0.0060   -999.0000   -999.0000 
  -999.0000 
  7832.5000 
     8.2200      2.2990      0.1720    -18.3100     33.5500      9.6800 
     7.4000      2.3500     85.5200      0.0000   -999.0000   -999.0000 
  -999.0000 
  7833.0000 
     8.1800      2.2620      0.1730    -18.2700     28.2400     11.8200 
     8.2500      2.9700     86.9400      0.0010   -999.0000   -999.0000 
  -999.0000 
  7833.5000 
     8.1900      2.2300      0.1760    -18.1600     23.4400     14.4000 
     9.3700      3.2000     85.2500     -0.0020   -999.0000   -999.0000 
  -999.0000 
  7834.0000 
     8.1800      2.2740      0.1820    -17.9900     24.1600     16.8100 
    10.5700      3.0800     85.2000     -0.0040   -999.0000   -999.0000 
  -999.0000 
  7834.5000 
     8.1900      2.2960      0.1790    -17.6700     23.8900     18.1200 
    11.3400      2.8800     84.7000     -0.0020   -999.0000   -999.0000 
  -999.0000 
  7835.0000 
     8.1900      2.2990      0.1730    -17.6400     24.3700     19.0000 
    11.6900      2.6900     84.5500      0.0060   -999.0000   -999.0000 
  -999.0000 
  7835.5000 
     8.1900      2.2970      0.1710    -17.6800     21.2200     20.2900 
    12.1100      2.5600     85.5000      0.0020   -999.0000   -999.0000 
  -999.0000 
  7836.0000 
     8.1900      2.2830      0.1680    -17.8200     21.1400     22.0600 
    12.8200      2.5100     85.5000     -0.0040   -999.0000   -999.0000 
  -999.0000 
  7836.5000 
     8.1900      2.2660      0.1700    -18.2500     21.6200     23.8800 
    13.6500      2.5400     85.1000     -0.0040   -999.0000   -999.0000 
  -999.0000 
  7837.0000 
     8.1900      2.2610      0.1720    -18.3100     21.3900     25.4500 
    14.4400      2.5900     85.1000     -0.0030   -999.0000   -999.0000 
  -999.0000 
  7837.5000 
     8.1900      2.2640      0.1700    -18.4400     20.4200     27.3700 
    15.3600      2.6100     85.6000     -0.0010   -999.0000   -999.0000 
  -999.0000 
  7838.0000 
     8.1900      2.2820      0.1660    -18.5600     22.7900     29.9700 
    16.5300      2.6200     85.6000      0.0010   -999.0000   -999.0000 
  -999.0000 
  7838.5000 
     8.1900      2.2540      0.1600    -18.8800     22.2400     32.9800 
    17.8900      2.9700     85.5000     -0.0020   -999.0000   -999.0000 
  -999.0000 
  7839.0000 
     8.1900      2.2160      0.1580    -19.2200     19.5900     36.0000 
    19.5100      3.7100     85.8500     -0.0200   -999.0000   -999.0000 
  -999.0000 
  7839.5000 
     8.1900      2.2060      0.1630    -19.7900     17.9900     37.2800 
    21.1000      4.1600     85.2000     -0.0240   -999.0000   -999.0000 
  -999.0000 
  7840.0000 
     8.1800      2.2390      0.1610    -20.1800     18.3800     35.4300 
    21.6000      4.3100     83.8100     -0.0130   -999.0000   -999.0000 
  -999.0000 
  7840.5000 
     8.1900      2.2540      0.1620    -20.7600     18.5600     30.4200 
    20.1200      3.7100     84.3500     -0.0080   -999.0000   -999.0000 
  -999.0000 
  7841.0000 
     8.1800      2.2590      0.1700    -21.4000     18.1400     23.2900 
    16.9800      3.2300     85.0500     -0.0090   -999.0000   -999.0000 
  -999.0000 
  7841.5000 
     8.1800      2.2140      0.1740    -21.9000     18.7600     18.2100 
    13.9200      2.9600     85.4600     -0.0160   -999.0000   -999.0000 
  -999.0000 
  7842.0000 
     8.1900      2.2140      0.1790    -22.0900     20.4800     16.0000 
    12.0900      2.8500     87.8500     -0.0110   -999.0000   -999.0000 
  -999.0000 
  7842.5000 
     8.1900      2.2480      0.1870    -22.5000     24.9400     13.7600 
    10.6600      2.8100     87.1500     -0.0080   -999.0000   -999.0000 
  -999.0000 
  7843.0000 
     8.2300      2.2500      0.1950    -22.7300     29.5300     11.5200 
     9.1100      2.9700     86.3500     -0.0090   -999.0000   -999.0000 
  -999.0000 
  7843.5000 
     8.2400      2.2620      0.2100    -23.0900     30.3600     10.0900 
     7.8900      3.0700     84.5900     -0.0100   -999.0000   -999.0000 
  -999.0000 
  7844.0000 
     8.2400      2.3780      0.2290    -23.3200     45.4400      9.1000 
     7.2500      3.3400     83.2000      0.0120   -999.0000   -999.0000 
  -999.0000 
  7844.5000 
     8.2700      2.4610      0.2400    -23.0900     65.8900      8.3600 
     7.1200      3.4800     83.5500      0.0370   -999.0000   -999.0000 
  -999.0000 
  7845.0000 
     8.3900      2.3900      0.2270    -22.9800     70.3400      8.7100 
     7.5500      3.5600     84.6100      0.0140   -999.0000   -999.0000 
  -999.0000 
  7845.5000 
     8.3700      2.3870      0.1990    -22.3900     59.8800     10.4800 
     8.8100      3.6800     86.8000      0.0210   -999.0000   -999.0000 
  -999.0000 
  7846.0000 
     8.3100      2.2570      0.1760    -21.9100     41.8500     14.6500 
    10.9300      3.8400     87.6500      0.0110   -999.0000   -999.0000 
  -999.0000 
  7846.5000 
     8.3100      2.1820      0.1660    -21.4800     28.4300     24.5300 
    14.9100      4.1900     87.6000     -0.0030   -999.0000   -999.0000 
  -999.0000 
  7847.0000 
     8.2000      2.1940      0.1670    -20.9300     20.7400     31.9600 
    18.5400      4.6400     87.1500     -0.0110   -999.0000   -999.0000 
  -999.0000 
  7847.5000 
     8.1900      2.2030      0.1670    -20.9600     16.2000     28.8400 
    17.5900      4.8600     87.1500     -0.0210   -999.0000   -999.0000 
  -999.0000 
  7848.0000 
     8.1900      2.2080      0.1650    -20.6100     17.4800     25.2800 
    14.9100      4.8000     86.3000     -0.0170   -999.0000   -999.0000 
  -999.0000 
  7848.5000 
     8.1900      2.2580      0.1640    -20.3000     19.9000     25.1400 
    13.9200      4.4300     85.5600     -0.0040   -999.0000   -999.0000 
  -999.0000 
