~VERSION INFORMATION
 VERS.                 2.0:   CWLS LOG ASCII STANDARD - VERSION 2.0
 WRAP.                 YES:   MULTIPLE LINES PER DEPTH STEP
~WELL INFORMATION
#MNEM.UNIT       DATA           DESCRIPTION MNEMONIC
#---------    -------------   --------------------------
 STRT.FT          7615.0000:   START DEPTH
 STOP.FT          8738.0000:   STOP DEPTH
 STEP.FT             0.5000:   STEP VALUE
 NULL.                                -999.0000:   NULL VALUE
 COMP. PGL                                     : COMPANY
 WELL. Test Well 1                             : WELL
 FLD . Somewhere                               : FIELD
 LOC .                                         : LOCATION
 PROV.                                         : PROVINCE
 SRVC. SCH                                     : SERVICE COMPANY
 DATE. 1 Jan 1999                              : LOG DATE
 UWI .                                         : UNIQUE WELL ID
~CURVE INFORMATION
#MNEM          UNIT     API CODE   Curve Type
#---------- ---------- ----------  ----------
 DEPTH     .FT                   : Depth     
 CALI      .IN                   : Caliper   
 RHOB      .G/C3                 : Density   
 TNPH      .DEC                  : Neutron   
 SP        .MV                   : SP        
 SGR       .GAPI                 : GammaRay  
 LLD       .OHMM                 : DeepRes   
 LLS       .OHMM                 : MedRes    
 MSFLC     .OHMM                 : MicroRes  
 DTLN      .US/F                 : Sonic     
 DRHO      .G/C3                 : Drho      
 PERMCORE  .MD                   : CORE      
 PHICORE   .FRAC                 : CORE      
 GDCORE    .KGDM                 : CORE      
~P Interactive Petrophysics parameters
#Name        Value                 Description
#----- --------------------------  -----------
 COUNT.     UK                   : Country
 STATE.     North Sea            : State
 PDAT .     MSL                  : Permanent Datum
 EPDAT.     0.0ft                : Elevation of the Permanent datum
 LGMEA.     KB                   : Log Measured from
 DRMEA.     DF                   : Drilling Measured from
 LGMEA.     KB                   : Log Measured from
 APDAT.     60ft                 : Elevation above Permanent dataum log Measured from
 KB   .     60ft                 : KB elevation
 DF   .     59ft                 : DF elevation
 GL   .     -200ft               : GL elevation
 TLINT.     7614ft               : Top logged interval
 BLINT.     8730ft               : Bottom logged interval
 CONT .     SCH                  : Logging Contractor
 RMS  .ohmm 0.2                  : Mud resistivity
 RMFS .ohmm 0.15                 : Mud filtrate resistivity
 RMCS .ohmm 0.3                  : Mud cake resistivity
 RW   .ohmm 0.1                  : Formation resistivity
 MST  .F    60.                  : Mud resistivity temperature
 MFST .F    60.                  : Mud filtrate resistivity temperature
 MCST .F    60.                  : Mud cake resistivity temperature
 RWT  .F    60.                  : Formation resistivity temperature
~A Log data section
# ...
  7755.0000 
    11.1800      2.3750      0.4260    -31.7100    101.0600      1.7300 
     1.8000      0.6700     90.6000      0.1510   -999.0000   -999.0000 
  -999.0000 
  7755.5000 
    11.6000      2.3240      0.4190    -31.3800    100.2800      1.7700 
     1.8400      0.6100     97.3000      0.1200   -999.0000   -999.0000 
  -999.0000 
  7756.0000 
    11.3000      2.2820      0.4290    -32.0500    101.5700      1.7500 
     1.8400      0.5800     98.1400      0.1460   -999.0000   -999.0000 
  -999.0000 
  7756.5000 
    10.9800      2.4010      0.4300    -31.5200    100.0800      1.6400 
     1.7500      0.6500     90.2100      0.2050   -999.0000   -999.0000 
  -999.0000 
  7757.0000 
    10.7800      2.3590      0.4150    -31.5900     96.8700      1.5600 
     1.6400      0.7300     88.2200      0.1780   -999.0000   -999.0000 
  -999.0000 
  7757.5000 
    10.5000      2.3530      0.4010    -31.5600     98.1600      1.5400 
     1.6000      0.7400     89.1600      0.1670   -999.0000   -999.0000 
  -999.0000 
  7758.0000 
    11.0600      2.3090      0.3870    -31.1800    100.9900      1.5800 
     1.6300      0.6700     91.4100      0.1730   -999.0000   -999.0000 
  -999.0000 
  7758.5000 
    11.2700      2.3140      0.3750    -30.9500    101.7000      1.6200 
     1.6800      0.5900     94.4900      0.1440   -999.0000   -999.0000 
  -999.0000 
  7759.0000 
    10.8300      2.2980      0.3730    -30.8400     99.5700      1.6600 
     1.7100      0.5600     94.4500      0.1440   -999.0000   -999.0000 
  -999.0000 
  7759.5000 
    10.9800      2.1720      0.4010    -30.8200     98.7000      1.6500 
     1.7400      0.5600     94.5000      0.1230   -999.0000   -999.0000 
  -999.0000 
  7760.0000 
    11.0700      2.2070      0.4440    -30.5000     98.5500      1.6400 
     1.7400      0.5200     93.4900      0.0850   -999.0000   -999.0000 
  -999.0000 
  7760.5000 
    10.7200      2.1100      0.4630    -30.5500     95.2000      1.6100 
     1.7100      0.4700     91.0000      0.0320   -999.0000   -999.0000 
  -999.0000 
  7761.0000 
    10.8800      2.1950      0.4560    -30.5800     93.8300      1.6000 
     1.6800      0.4600     91.2200      0.1100   -999.0000   -999.0000 
  -999.0000 
  7761.5000 
    10.7700      2.2910      0.4650    -30.3200     95.9900      1.6000 
     1.6600      0.4800     95.1000      0.1780   -999.0000   -999.0000 
  -999.0000 
  7762.0000 
    10.8300      2.3600      0.4870    -30.4000     94.9400      1.5600 
     1.6400      0.5300     93.8000      0.1880   -999.0000   -999.0000 
  -999.0000 
  7762.5000 
    11.1400      2.3350      0.4740    -30.5200     92.8600      1.5200 
     1.6200      0.5400     92.5600      0.1840   -999.0000   -999.0000 
  -999.0000 
  7763.0000 
    11.0400      2.3050      0.4580    -30.4100     92.4200      1.5200 
     1.6100      0.5000     92.7000      0.1790   -999.0000   -999.0000 
  -999.0000 
  7763.5000 
    11.3400      2.3370      0.4680    -30.7800     92.2200      1.5300 
     1.6200      0.4600     93.6000      0.1700   -999.0000   -999.0000 
  -999.0000 
  7764.0000 
    11.4900      2.2990      0.4680    -30.7400     91.7700      1.5100 
     1.6100      0.4200     95.0900      0.1640   -999.0000   -999.0000 
  -999.0000 
  7764.5000 
    10.8900      2.2700      0.4500    -30.9300     90.5200      1.5200 
     1.6000      0.4100     91.8700      0.1500   -999.0000   -999.0000 
  -999.0000 
  7765.0000 
    11.5200      2.3830      0.4280    -31.1300     87.8800      1.5800 
     1.6500      0.4100     95.2900      0.1630   -999.0000   -999.0000 
  -999.0000 
  7765.5000 
    11.6700      2.4190      0.4280    -31.2400     88.5100      1.5700 
     1.6900      0.4400     94.7100      0.2160   -999.0000   -999.0000 
  -999.0000 
  7766.0000 
    11.4100      2.3300      0.4520    -31.1700     90.3500      1.5500 
     1.6700      0.4900     96.8300      0.1980   -999.0000   -999.0000 
  -999.0000 
  7766.5000 
    11.5000      2.3410      0.4870    -31.2700     91.8300      1.5300 
     1.6300      0.5300     94.5100      0.1860   -999.0000   -999.0000 
  -999.0000 
  7767.0000 
    11.2200      2.4140      0.4980    -30.9900     92.7600      1.4700 
     1.5800      0.5500     96.3100      0.2260   -999.0000   -999.0000 
  -999.0000 
  7767.5000 
    11.1100      2.3240      0.4870    -31.2300     91.8400      1.3600 
     1.4900      0.5400     97.2900      0.2050   -999.0000   -999.0000 
  -999.0000 
  7768.0000 
    11.5300      2.2240      0.4560    -31.0800     92.0400      1.3500 
     1.4500      0.5200     95.2700      0.1480   -999.0000   -999.0000 
  -999.0000 
  7768.5000 
    11.0700      2.2120      0.4840    -30.9600     93.2300      1.3700 
     1.4500      0.4900    100.1700      0.1280   -999.0000   -999.0000 
  -999.0000 
  7769.0000 
    11.5000      2.2120      0.5150    -31.1800     94.0000      1.3800 
     1.4600      0.4500     92.6300      0.1410   -999.0000   -999.0000 
  -999.0000 
  7769.5000 
    11.3700      2.2370      0.5230    -30.8400     92.4300      1.4100 
     1.4800      0.3900     95.1000      0.1450   -999.0000   -999.0000 
  -999.0000 
  7770.0000 
    11.7100      2.2230      0.4930    -30.8600     91.8500      1.5100 
     1.5700      0.3500     94.9300      0.1100   -999.0000   -999.0000 
  -999.0000 
  7770.5000 
    11.1800      2.2460      0.4500    -30.9700     92.8500      1.6100 
     1.6700      0.3600     91.4100      0.1190   -999.0000   -999.0000 
  -999.0000 
  7771.0000 
    11.1200      2.3570      0.4420    -30.6100     99.2400      1.6600 
     1.7300      0.4200     93.3500      0.1650   -999.0000   -999.0000 
  -999.0000 
  7771.5000 
    11.0900      2.3170      0.4550    -30.6600    101.7600      1.7300 
     1.8100      0.4700     95.6800      0.1520   -999.0000   -999.0000 
  -999.0000 
  7772.0000 
    10.9600      2.6250      0.4460    -30.8900    101.7900      1.7400 
     1.8300      0.5200     92.6100      0.1930   -999.0000   -999.0000 
  -999.0000 
  7772.5000 
    11.1000      2.5140      0.4350    -30.8000    102.9400      1.7300 
     1.8100      0.5900     91.1100      0.1050   -999.0000   -999.0000 
  -999.0000 
  7773.0000 
    10.5100      2.4560      0.4570    -30.6200    104.7800      1.6800 
     1.7600      0.6500     97.7800      0.0600   -999.0000   -999.0000 
  -999.0000 
  7773.5000 
    10.3200      2.4730      0.5010    -30.8500    102.3900      1.5300 
     1.6600      0.6900     92.6300      0.0630   -999.0000   -999.0000 
  -999.0000 
  7774.0000 
    10.5400      2.4960      0.5140    -30.8200     98.1700      1.4300 
     1.5600      0.6700     96.5800      0.0820   -999.0000   -999.0000 
  -999.0000 
  7774.5000 
    11.2600      2.4940      0.5020    -30.8500     95.6500      1.4300 
     1.5000      0.5900     94.3500      0.0880   -999.0000   -999.0000 
  -999.0000 
  7775.0000 
    11.8200      2.4950      0.5030    -30.9300     94.2500      1.5000 
     1.5400      0.5000     90.8200      0.0940   -999.0000   -999.0000 
  -999.0000 
  7775.5000 
    11.6200      2.4860      0.4200    -30.8400     95.9600      1.6000 
     1.6400      0.4200     95.6900      0.0920   -999.0000   -999.0000 
  -999.0000 
  7776.0000 
    11.2800      2.5160      0.2940    -30.6300    100.9400      1.7500 
     1.7800      0.3800     93.2000      0.1110   -999.0000   -999.0000 
  -999.0000 
  7776.5000 
    11.3400      2.4850      0.2350    -30.6500    107.3600      2.1000 
     2.0900      0.4200     92.1500      0.1040   -999.0000   -999.0000 
  -999.0000 
  7777.0000 
     9.3900      2.4750      0.2470    -30.6800    107.8400      2.5300 
     2.4500      0.6000     90.4800      0.1150   -999.0000   -999.0000 
  -999.0000 
  7777.5000 
     9.2600      2.4750      0.2660    -30.4800    107.9900      2.9800 
     2.8500      0.9900     86.6300      0.1320   -999.0000   -999.0000 
  -999.0000 
  7778.0000 
     9.1300      2.5120      0.2840    -29.6900    106.2300      3.1900 
     3.1300      1.4400     89.2500      0.1460   -999.0000   -999.0000 
  -999.0000 
