~VERSION INFORMATION
 VERS.                 2.0:   CWLS LOG ASCII STANDARD - VERSION 2.0
 WRAP.                 YES:   MULTIPLE LINES PER DEPTH STEP
~WELL INFORMATION
#MNEM.UNIT       DATA           DESCRIPTION MNEMONIC
#---------    -------------   --------------------------
 STRT.FT          7615.0000:   START DEPTH
 STOP.FT          8738.0000:   STOP DEPTH
 STEP.FT             0.5000:   STEP VALUE
 NULL.                                -999.0000:   NULL VALUE
 COMP. PGL                                     : COMPANY
 WELL. Test Well 1                             : WELL
 FLD . Somewhere                               : FIELD
 LOC .                                         : LOCATION
 PROV.                                         : PROVINCE
 SRVC. SCH                                     : SERVICE COMPANY
 DATE. 1 Jan 1999                              : LOG DATE
 UWI .                                         : UNIQUE WELL ID
~CURVE INFORMATION
#MNEM          UNIT     API CODE   Curve Type
#---------- ---------- ----------  ----------
 DEPTH     .FT                   : Depth     
 CALI      .IN                   : Caliper   
 RHOB      .G/C3                 : Density   
 TNPH      .DEC                  : Neutron   
 SP        .MV                   : SP        
 SGR       .GAPI                 : GammaRay  
 LLD       .OHMM                 : DeepRes   
 LLS       .OHMM                 : MedRes    
 MSFLC     .OHMM                 : MicroRes  
 DTLN      .US/F                 : Sonic     
 DRHO      .G/C3                 : Drho      
 PERMCORE  .MD                   : CORE      
 PHICORE   .FRAC                 : CORE      
 GDCORE    .KGDM                 : CORE      
~P Interactive Petrophysics parameters
#Name        Value                 Description
#----- --------------------------  -----------
 COUNT.     UK                   : Country
 STATE.     North Sea            : State
 PDAT .     MSL                  : Permanent Datum
 EPDAT.     0.0ft                : Elevation of the Permanent datum
 LGMEA.     KB                   : Log Measured from
 DRMEA.     DF                   : Drilling Measured from
 LGMEA.     KB                   : Log Measured from
 APDAT.     60ft                 : Elevation above Permanent dataum log Measured from
 KB   .     60ft                 : KB elevation
 DF   .     59ft                 : DF elevation
 GL   .     -200ft               : GL elevation
 TLINT.     7614ft               : Top logged interval
 BLINT.     8730ft               : Bottom logged interval
 CONT .     SCH                  : Logging Contractor
 RMS  .ohmm 0.2                  : Mud resistivity
 RMFS .ohmm 0.15                 : Mud filtrate resistivity
 RMCS .ohmm 0.3                  : Mud cake resistivity
 RW   .ohmm 0.1                  : Formation resistivity
 MST  .F    60.                  : Mud resistivity temperature
 MFST .F    60.                  : Mud filtrate resistivity temperature
 MCST .F    60.                  : Mud cake resistivity temperature
 RWT  .F    60.                  : Formation resistivity temperature
~A Log data section
# ...
  8131.0000 
     8.1200      2.3400      0.1650    -12.4300     32.8400      2.6700 
     2.1500      1.6100     79.5000      0.0180   -999.0000   -999.0000 
  -999.0000 
  8131.5000 
     8.1500      2.3700      0.1730    -13.4800     44.0300      2.9900 
     2.3900      1.8300     78.8500      0.0350   -999.0000   -999.0000 
  -999.0000 
  8132.0000 
     8.1500      2.3530      0.1780    -13.7700     49.0500      3.1700 
     2.6600      2.0300     79.7900      0.0220   -999.0000   -999.0000 
  -999.0000 
  8132.5000 
     8.1600      2.3590      0.1930    -14.2800     47.9000      3.2100 
     2.8200      2.1700     79.9500      0.0130   -999.0000   -999.0000 
  -999.0000 
  8133.0000 
     8.1800      2.3800      0.2100    -14.8500     52.2200      3.2400 
     2.8500      2.2400     80.3500      0.0120   -999.0000   -999.0000 
  -999.0000 
  8133.5000 
     8.1900      2.3780      0.2100    -15.4300     63.1400      3.1700 
     2.8600      2.2500     80.8000      0.0040   -999.0000   -999.0000 
  -999.0000 
  8134.0000 
     8.2100      2.3950      0.2110    -15.7900     75.4100      3.0700 
     2.7900      2.2400     81.0000      0.0130   -999.0000   -999.0000 
  -999.0000 
  8134.5000 
     8.2100      2.3930      0.2140    -16.0100     84.1700      3.0300 
     2.7100      2.1500     81.0500      0.0180   -999.0000   -999.0000 
  -999.0000 
  8135.0000 
     8.1900      2.4000      0.2150    -16.0200     90.2400      2.9900 
     2.6800      2.1300     80.7000      0.0190   -999.0000   -999.0000 
  -999.0000 
  8135.5000 
     8.1600      2.3650      0.1980    -15.7900     87.5200      2.9600 
     2.6500      2.0700     80.9000      0.0050   -999.0000   -999.0000 
  -999.0000 
  8136.0000 
     8.1500      2.3390      0.1810    -15.6400     77.1500      2.9000 
     2.6300      2.0100     80.5000      0.0040   -999.0000   -999.0000 
  -999.0000 
  8136.5000 
     8.1100      2.3360      0.1820    -15.3100     64.8400      2.8000 
     2.5800      1.9400     79.9500      0.0090   -999.0000   -999.0000 
  -999.0000 
  8137.0000 
     8.1100      2.3480      0.1870    -14.9000     58.2500      2.7500 
     2.5100      1.8400     79.4000      0.0090   -999.0000   -999.0000 
  -999.0000 
  8137.5000 
     8.0800      2.3610      0.1800    -14.5900     53.5000      2.6900 
     2.4800      1.7900     78.5000      0.0090   -999.0000   -999.0000 
  -999.0000 
  8138.0000 
     8.0800      2.3430      0.1630    -13.9700     55.0700      2.6500 
     2.4300      1.7500     78.3000      0.0050   -999.0000   -999.0000 
  -999.0000 
  8138.5000 
     8.0800      2.3390      0.1590    -13.3400     47.2500      2.6200 
     2.4100      1.7500     78.1500      0.0040   -999.0000   -999.0000 
  -999.0000 
  8139.0000 
     8.0800      2.3380      0.1700    -12.7800     37.3700      2.5600 
     2.3800      1.7200     78.5000      0.0120   -999.0000   -999.0000 
  -999.0000 
  8139.5000 
     8.0800      2.3440      0.1780    -12.5500     38.8100      2.5000 
     2.3200      1.6900     79.3000      0.0190   -999.0000   -999.0000 
  -999.0000 
  8140.0000 
     8.0800      2.3380      0.1810    -12.5000     44.4600      2.4500 
     2.2700      1.6500     79.7000      0.0190   -999.0000   -999.0000 
  -999.0000 
  8140.5000 
     8.0800      2.3260      0.1840    -12.4800     48.5100      2.4400 
     2.2200      1.6100     79.8000      0.0180   -999.0000   -999.0000 
  -999.0000 
  8141.0000 
     8.0800      2.3430      0.1820    -12.3800     55.1700      2.4600 
     2.2100      1.6200     80.2000      0.0250   -999.0000   -999.0000 
  -999.0000 
  8141.5000 
     8.0800      2.3430      0.1820    -12.3500     58.7600      2.4700 
     2.2100      1.6300     79.8500      0.0200   -999.0000   -999.0000 
  -999.0000 
  8142.0000 
     8.0800      2.3480      0.1820    -12.1700     57.6600      2.5500 
     2.2200      1.6500     79.8000      0.0150   -999.0000   -999.0000 
  -999.0000 
  8142.5000 
     8.0800      2.3540      0.1820    -12.0600     55.7500      2.6400 
     2.2800      1.7100     79.4000      0.0170   -999.0000   -999.0000 
  -999.0000 
  8143.0000 
     8.0800      2.3850      0.1860    -12.0700     59.9000      2.7600 
     2.3600      1.8200     79.5000      0.0340   -999.0000   -999.0000 
  -999.0000 
  8143.5000 
     8.1000      2.3820      0.1810    -12.1600     66.5600      2.7800 
     2.4400      1.9200     79.1000      0.0270   -999.0000   -999.0000 
  -999.0000 
  8144.0000 
     8.1500      2.3710      0.1740    -12.3500     63.1900      2.7800 
     2.4500      1.9500     79.2500      0.0110   -999.0000   -999.0000 
  -999.0000 
  8144.5000 
     8.1200      2.3650      0.1710    -12.1600     53.4500      2.7000 
     2.4600      1.8700     80.0000      0.0170   -999.0000   -999.0000 
  -999.0000 
  8145.0000 
     8.1100      2.3470      0.1770    -12.0000     49.1300      2.5900 
     2.3900      1.7900     80.5000      0.0310   -999.0000   -999.0000 
  -999.0000 
  8145.5000 
     8.1100      2.3450      0.1810    -12.0300     50.9500      2.5300 
     2.3100      1.7200     80.6500      0.0390   -999.0000   -999.0000 
  -999.0000 
  8146.0000 
     8.1100      2.3470      0.1890    -12.1800     54.9800      2.4900 
     2.2600      1.6800     80.2000      0.0410   -999.0000   -999.0000 
  -999.0000 
  8146.5000 
     8.1100      2.3450      0.1910    -12.1300     55.8700      2.4000 
     2.2200      1.6100     79.4000      0.0540   -999.0000   -999.0000 
  -999.0000 
  8147.0000 
     8.1100      2.3430      0.1780    -12.1500     46.8800      2.3600 
     2.1500      1.5200     78.8000      0.0650   -999.0000   -999.0000 
  -999.0000 
  8147.5000 
     8.1100      2.3370      0.1710    -11.9200     39.2200      2.3000 
     2.1100      1.4400     78.1000      0.0540   -999.0000   -999.0000 
  -999.0000 
  8148.0000 
     8.1100      2.3380      0.1680    -11.7700     35.6400      2.2700 
     2.0700      1.4100     77.8500      0.0230   -999.0000   -999.0000 
  -999.0000 
  8148.5000 
     8.1100      2.3230      0.1630    -11.4600     33.9700      2.2700 
     2.0500      1.4300     78.4000     -0.0010   -999.0000   -999.0000 
  -999.0000 
  8149.0000 
     8.0800      2.3170      0.1610    -11.2800     31.1100      2.2200 
     2.0400      1.4400     78.7500     -0.0030   -999.0000   -999.0000 
  -999.0000 
  8149.5000 
     8.0800      2.3120      0.1640    -11.4600     26.0400      2.1900 
     2.0000      1.4100     78.6000      0.0000   -999.0000   -999.0000 
  -999.0000 
  8150.0000 
     8.0800      2.3290      0.1710    -11.6000     25.3900      2.2400 
     1.9800      1.3900     78.4000      0.0030   -999.0000   -999.0000 
  -999.0000 
  8150.5000 
     8.0800      2.3470      0.1730    -11.8800     30.2400      2.3900 
     2.0300      1.4300     78.8000      0.0040   -999.0000   -999.0000 
  -999.0000 
  8151.0000 
     8.0800      2.3580      0.1770    -12.6800     34.7100      2.6400 
     2.1500      1.5600     78.0000      0.0050   -999.0000   -999.0000 
  -999.0000 
  8151.5000 
     8.0900      2.3480      0.1790    -13.0800     40.0600      2.9200 
     2.3600      1.7900     78.0000     -0.0020   -999.0000   -999.0000 
  -999.0000 
  8152.0000 
     8.1100      2.3630      0.1830    -13.5700     51.1100      3.1500 
     2.5900      2.0300     77.8000     -0.0030   -999.0000   -999.0000 
  -999.0000 
  8152.5000 
     8.1600      2.3800      0.1880    -14.0600     65.7300      3.2900 
     2.7800      2.2000     78.2000      0.0060   -999.0000   -999.0000 
  -999.0000 
  8153.0000 
     8.1800      2.3650      0.1970    -14.4400     73.5500      3.3300 
     2.8900      2.2500     78.0000      0.0060   -999.0000   -999.0000 
  -999.0000 
  8153.5000 
     8.1800      2.3670      0.2060    -14.8500     77.3900      3.2500 
     2.9400      2.2200     78.5000      0.0020   -999.0000   -999.0000 
  -999.0000 
  8154.0000 
     8.1900      2.3800      0.1980    -15.0000     74.8900      3.0400 
     2.8700      2.2000     78.6000      0.0080   -999.0000   -999.0000 
  -999.0000 
