~VERSION INFORMATION
 VERS.                 2.0:   CWLS LOG ASCII STANDARD - VERSION 2.0
 WRAP.                 YES:   MULTIPLE LINES PER DEPTH STEP
~WELL INFORMATION
#MNEM.UNIT       DATA           DESCRIPTION MNEMONIC
#---------    -------------   --------------------------
 STRT.FT          7615.0000:   START DEPTH
 STOP.FT          8738.0000:   STOP DEPTH
 STEP.FT             0.5000:   STEP VALUE
 NULL.                                -999.0000:   NULL VALUE
 COMP. PGL                                     : COMPANY
 WELL. Test Well 1                             : WELL
 FLD . Somewhere                               : FIELD
 LOC .                                         : LOCATION
 PROV.                                         : PROVINCE
 SRVC. SCH                                     : SERVICE COMPANY
 DATE. 1 Jan 1999                              : LOG DATE
 UWI .                                         : UNIQUE WELL ID
~CURVE INFORMATION
#MNEM          UNIT     API CODE   Curve Type
#---------- ---------- ----------  ----------
 DEPTH     .FT                   : Depth     
 CALI      .IN                   : Caliper   
 RHOB      .G/C3                 : Density   
 TNPH      .DEC                  : Neutron   
 SP        .MV                   : SP        
 SGR       .GAPI                 : GammaRay  
 LLD       .OHMM                 : DeepRes   
 LLS       .OHMM                 : MedRes    
 MSFLC     .OHMM                 : MicroRes  
 DTLN      .US/F                 : Sonic     
 DRHO      .G/C3                 : Drho      
 PERMCORE  .MD                   : CORE      
 PHICORE   .FRAC                 : CORE      
 GDCORE    .KGDM                 : CORE      
~P Interactive Petrophysics parameters
#Name        Value                 Description
#----- --------------------------  -----------
 COUNT.     UK                   : Country
 STATE.     North Sea            : State
 PDAT .     MSL                  : Permanent Datum
 EPDAT.     0.0ft                : Elevation of the Permanent datum
 LGMEA.     KB                   : Log Measured from
 DRMEA.     DF                   : Drilling Measured from
 LGMEA.     KB                   : Log Measured from
 APDAT.     60ft                 : Elevation above Permanent dataum log Measured from
 KB   .     60ft                 : KB elevation
 DF   .     59ft                 : DF elevation
 GL   .     -200ft               : GL elevation
 TLINT.     7614ft               : Top logged interval
 BLINT.     8730ft               : Bottom logged interval
 CONT .     SCH                  : Logging Contractor
 RMS  .ohmm 0.2                  : Mud resistivity
 RMFS .ohmm 0.15                 : Mud filtrate resistivity
 RMCS .ohmm 0.3                  : Mud cake resistivity
 RW   .ohmm 0.1                  : Formation resistivity
 MST  .F    60.                  : Mud resistivity temperature
 MFST .F    60.                  : Mud filtrate resistivity temperature
 MCST .F    60.                  : Mud cake resistivity temperature
 RWT  .F    60.                  : Formation resistivity temperature
~A Log data section
# ...
  8272.0000 
     8.5700      2.4900      0.2670    -30.2900     74.1900      3.3600 
     3.7600      2.6200     82.4000      0.0050   -999.0000   -999.0000 
  -999.0000 
  8272.5000 
     8.6100      2.5260      0.2920    -30.5300     73.1400      3.3500 
     3.7700      2.8400     81.9000      0.0070   -999.0000   -999.0000 
  -999.0000 
  8273.0000 
     8.5700      2.5380      0.3060    -30.3400     79.9300      3.3700 
     3.7500      3.1100     81.0000      0.0080   -999.0000   -999.0000 
  -999.0000 
  8273.5000 
     8.5500      2.5330      0.3160    -30.5200     95.4600      3.3500 
     3.7800      3.2400     80.5000      0.0080   -999.0000   -999.0000 
  -999.0000 
  8274.0000 
     8.5500      2.5150      0.3070    -30.1700     95.8900      3.3600 
     3.7600      3.1800     81.3500      0.0090   -999.0000   -999.0000 
  -999.0000 
  8274.5000 
     8.5500      2.4950      0.2710    -30.0600     96.4100      3.5000 
     3.7600      2.8700     80.6000      0.0300   -999.0000   -999.0000 
  -999.0000 
  8275.0000 
     8.5500      2.4830      0.2460    -29.9800     98.2500      3.6800 
     3.8900      2.3500     80.1000      0.0850   -999.0000   -999.0000 
  -999.0000 
  8275.5000 
     8.5600      2.5100      0.2510    -29.8300     87.7500      3.8400 
     4.0700      2.1500     80.0500      0.0890   -999.0000   -999.0000 
  -999.0000 
  8276.0000 
     8.7200      2.4560      0.2750    -29.9400     84.9300      3.9000 
     4.2300      2.3400     80.9000      0.0480   -999.0000   -999.0000 
  -999.0000 
  8276.5000 
     8.8700      2.4420      0.2840    -29.5500     88.0400      3.7200 
     4.3000      2.5600     81.0100      0.0850   -999.0000   -999.0000 
  -999.0000 
  8277.0000 
     8.5500      2.5540      0.2640    -29.8500     94.4100      3.4200 
     4.1300      2.3600     83.3000      0.1360   -999.0000   -999.0000 
  -999.0000 
  8277.5000 
     8.5600      2.5760      0.2360    -29.6000     86.0500      3.3200 
     3.7900      1.7300     84.0000      0.0850   -999.0000   -999.0000 
  -999.0000 
  8278.0000 
     8.6800      2.5360      0.2340    -29.4600     66.2400      3.3600 
     3.6800      1.2700     82.0000      0.0200   -999.0000   -999.0000 
  -999.0000 
  8278.5000 
     9.1200      2.5220      0.2560    -29.6000     66.3100      3.4900 
     3.7300      1.4700     82.2000      0.0140   -999.0000   -999.0000 
  -999.0000 
  8279.0000 
     9.0800      2.5130      0.2770    -29.4700     68.9300      3.7200 
     3.8800      2.0000     81.3000      0.0190   -999.0000   -999.0000 
  -999.0000 
  8279.5000 
     8.7600      2.5030      0.2780    -29.7000     91.2600      3.9300 
     4.1200      2.3100     80.7000      0.0460   -999.0000   -999.0000 
  -999.0000 
  8280.0000 
     8.5800      2.4990      0.2530    -29.8000     92.6900      4.1000 
     4.3400      2.3800     81.0000      0.0680   -999.0000   -999.0000 
  -999.0000 
  8280.5000 
     8.6400      2.4680      0.2360    -29.6700     90.4200      4.0100 
     4.4900      2.0300     81.6000      0.0710   -999.0000   -999.0000 
  -999.0000 
  8281.0000 
     8.8200      2.3970      0.2340    -29.4900     82.3700      3.9200 
     4.3800      1.6500     81.5500      0.0570   -999.0000   -999.0000 
  -999.0000 
  8281.5000 
     8.6100      2.4250      0.2350    -29.3800     84.7300      3.9500 
     4.2700      1.3800     81.3000      0.0810   -999.0000   -999.0000 
  -999.0000 
  8282.0000 
     8.9200      2.4940      0.2450    -29.3500     79.6000      3.9600 
     4.2600      1.3800     81.0000      0.1050   -999.0000   -999.0000 
  -999.0000 
  8282.5000 
     9.1900      2.5150      0.2560    -29.1500     70.6800      4.1000 
     4.2700      1.7800     80.2500      0.0690   -999.0000   -999.0000 
  -999.0000 
  8283.0000 
     9.3000      2.5420      0.2550    -28.8600     77.0300      4.3500 
     4.4000      2.5300     79.0500      0.0460   -999.0000   -999.0000 
  -999.0000 
  8283.5000 
     8.9500      2.5110      0.2460    -28.6900     87.8100      4.3000 
     4.6500      3.1700     79.5000      0.0510   -999.0000   -999.0000 
  -999.0000 
  8284.0000 
     8.4300      2.4100      0.2370    -28.1900     88.6200      4.1800 
     4.6000      3.3000     79.8000      0.0340   -999.0000   -999.0000 
  -999.0000 
  8284.5000 
     8.4200      2.3400      0.2320    -27.7200     84.4200      4.1300 
     4.4500      2.6300     80.6000      0.0460   -999.0000   -999.0000 
  -999.0000 
  8285.0000 
     8.2900      2.3590      0.2370    -27.4500     75.9600      3.9900 
     4.3800      1.7000     80.7000      0.0770   -999.0000   -999.0000 
  -999.0000 
  8285.5000 
     8.5000      2.3800      0.2510    -27.5800     64.7900      4.0500 
     4.2300      0.9400     82.7000      0.0620   -999.0000   -999.0000 
  -999.0000 
  8286.0000 
     9.0100      2.4170      0.2640    -27.7700     66.2500      4.0800 
     4.2700      0.9600     82.7000      0.0280   -999.0000   -999.0000 
  -999.0000 
  8286.5000 
     9.1600      2.4780      0.2810    -27.9800     69.5900      4.0500 
     4.3100      1.5800     81.5100      0.0200   -999.0000   -999.0000 
  -999.0000 
  8287.0000 
     9.3200      2.5010      0.2770    -28.3000     84.6800      4.0900 
     4.2700      2.0700     82.7000      0.0200   -999.0000   -999.0000 
  -999.0000 
  8287.5000 
     8.7500      2.4880      0.2580    -28.2100     93.0700      4.0100 
     4.3000      2.1700     82.4000      0.0230   -999.0000   -999.0000 
  -999.0000 
  8288.0000 
     8.6000      2.4800      0.2510    -27.8300     92.6000      3.9700 
     4.1800      2.0200     82.2500      0.0370   -999.0000   -999.0000 
  -999.0000 
  8288.5000 
     9.0400      2.4900      0.2710    -27.4500     86.7400      4.0000 
     4.1100      2.0300     81.5500      0.0540   -999.0000   -999.0000 
  -999.0000 
  8289.0000 
     9.3500      2.5160      0.3060    -27.4900     76.8200      4.1200 
     4.1300      2.4800     82.1500      0.0600   -999.0000   -999.0000 
  -999.0000 
  8289.5000 
     8.8900      2.5600      0.3270    -27.4200     86.9500      4.1200 
     4.2300      3.0400     82.1000      0.0540   -999.0000   -999.0000 
  -999.0000 
  8290.0000 
     8.4700      2.5600      0.3180    -27.2100     96.6500      4.0000 
     4.2100      3.5000     82.6500      0.0330   -999.0000   -999.0000 
  -999.0000 
  8290.5000 
     8.4400      2.5160      0.3160    -26.7900     96.4200      3.8300 
     4.0500      3.6300     84.1000      0.0110   -999.0000   -999.0000 
  -999.0000 
  8291.0000 
     8.4300      2.5120      0.3040    -26.0600     85.3900      3.4200 
     3.8400      3.5600     84.3000      0.0250   -999.0000   -999.0000 
  -999.0000 
  8291.5000 
     8.4300      2.5100      0.2760    -25.4800     67.0600      3.1500 
     3.4300      3.2600     84.3000      0.0330   -999.0000   -999.0000 
  -999.0000 
  8292.0000 
     8.4300      2.4720      0.2490    -24.7100     54.1500      3.1600 
     3.1600      2.7100     84.2000      0.0310   -999.0000   -999.0000 
  -999.0000 
  8292.5000 
     8.4300      2.4050      0.2300    -23.8500     48.6400      3.3800 
     3.1500      2.3300     83.5500      0.0180   -999.0000   -999.0000 
  -999.0000 
  8293.0000 
     8.3400      2.3930      0.2280    -23.0600     52.3500      3.5700 
     3.3400      2.2500     83.7000      0.0210   -999.0000   -999.0000 
  -999.0000 
  8293.5000 
     8.3400      2.4590      0.2600    -21.9200     61.8200      3.3300 
     3.5000      2.6000     83.6000      0.0380   -999.0000   -999.0000 
  -999.0000 
  8294.0000 
     8.3400      2.5120      0.3200    -20.7000     75.8800      2.6400 
     3.2600      2.9900     83.7000      0.0380   -999.0000   -999.0000 
  -999.0000 
  8294.5000 
     8.3600      2.5170      0.3460    -19.1700     88.9000      2.0200 
     2.6300      2.9900     83.0000      0.0310   -999.0000   -999.0000 
  -999.0000 
  8295.0000 
     8.3400      2.5050      0.2960    -17.3600     74.9000      1.7500 
     2.0600      2.4800     83.1500      0.0380   -999.0000   -999.0000 
  -999.0000 
