~VERSION INFORMATION
 VERS.                 2.0:   CWLS LOG ASCII STANDARD - VERSION 2.0
 WRAP.                 YES:   MULTIPLE LINES PER DEPTH STEP
~WELL INFORMATION
#MNEM.UNIT       DATA           DESCRIPTION MNEMONIC
#---------    -------------   --------------------------
 STRT.FT          7615.0000:   START DEPTH
 STOP.FT          8738.0000:   STOP DEPTH
 STEP.FT             0.5000:   STEP VALUE
 NULL.                                -999.0000:   NULL VALUE
 COMP. PGL                                     : COMPANY
 WELL. Test Well 1                             : WELL
 FLD . Somewhere                               : FIELD
 LOC .                                         : LOCATION
 PROV.                                         : PROVINCE
 SRVC. SCH                                     : SERVICE COMPANY
 DATE. 1 Jan 1999                              : LOG DATE
 UWI .                                         : UNIQUE WELL ID
~CURVE INFORMATION
#MNEM          UNIT     API CODE   Curve Type
#---------- ---------- ----------  ----------
 DEPTH     .FT                   : Depth     
 CALI      .IN                   : Caliper   
 RHOB      .G/C3                 : Density   
 TNPH      .DEC                  : Neutron   
 SP        .MV                   : SP        
 SGR       .GAPI                 : GammaRay  
 LLD       .OHMM                 : DeepRes   
 LLS       .OHMM                 : MedRes    
 MSFLC     .OHMM                 : MicroRes  
 DTLN      .US/F                 : Sonic     
 DRHO      .G/C3                 : Drho      
 PERMCORE  .MD                   : CORE      
 PHICORE   .FRAC                 : CORE      
 GDCORE    .KGDM                 : CORE      
~P Interactive Petrophysics parameters
#Name        Value                 Description
#----- --------------------------  -----------
 COUNT.     UK                   : Country
 STATE.     North Sea            : State
 PDAT .     MSL                  : Permanent Datum
 EPDAT.     0.0ft                : Elevation of the Permanent datum
 LGMEA.     KB                   : Log Measured from
 DRMEA.     DF                   : Drilling Measured from
 LGMEA.     KB                   : Log Measured from
 APDAT.     60ft                 : Elevation above Permanent dataum log Measured from
 KB   .     60ft                 : KB elevation
 DF   .     59ft                 : DF elevation
 GL   .     -200ft               : GL elevation
 TLINT.     7614ft               : Top logged interval
 BLINT.     8730ft               : Bottom logged interval
 CONT .     SCH                  : Logging Contractor
 RMS  .ohmm 0.2                  : Mud resistivity
 RMFS .ohmm 0.15                 : Mud filtrate resistivity
 RMCS .ohmm 0.3                  : Mud cake resistivity
 RW   .ohmm 0.1                  : Formation resistivity
 MST  .F    60.                  : Mud resistivity temperature
 MFST .F    60.                  : Mud filtrate resistivity temperature
 MCST .F    60.                  : Mud cake resistivity temperature
 RWT  .F    60.                  : Formation resistivity temperature
~A Log data section
# ...
  8648.0000 
     8.4900      2.5390      0.2850    -27.4800     98.0700      2.8500 
     3.1400      2.8400     81.3500      0.0060   -999.0000   -999.0000 
  -999.0000 
  8648.5000 
     8.4900      2.5380      0.2750    -27.3300    100.1900      2.8800 
     3.1000      2.8000     82.0000      0.0020   -999.0000   -999.0000 
  -999.0000 
  8649.0000 
     8.4900      2.5410      0.2780    -27.4900    101.7700      2.9200 
     3.1200      2.8300     81.6500      0.0050   -999.0000   -999.0000 
  -999.0000 
  8649.5000 
     8.4900      2.5530      0.2800    -27.4600    103.4600      2.9300 
     3.1600      2.8400     81.1500      0.0130   -999.0000   -999.0000 
  -999.0000 
  8650.0000 
     8.4900      2.5400      0.2710    -27.6100    100.9700      2.9200 
     3.1700      2.8500     82.1900      0.0140   -999.0000   -999.0000 
  -999.0000 
  8650.5000 
     8.4900      2.5210      0.2680    -27.4400     98.6900      2.8600 
     3.1700      2.8500     81.4500      0.0050   -999.0000   -999.0000 
  -999.0000 
  8651.0000 
     8.4900      2.5280      0.2730    -27.5200     98.5000      2.8400 
     3.1200      2.8000     81.5500      0.0090   -999.0000   -999.0000 
  -999.0000 
  8651.5000 
     8.4900      2.5320      0.2770    -27.6900    101.0000      2.9200 
     3.0900      2.8000     81.8000      0.0040   -999.0000   -999.0000 
  -999.0000 
  8652.0000 
     8.4900      2.5420      0.2860    -27.7000    101.0500      2.9800 
     3.1500      2.8500     81.7000     -0.0080   -999.0000   -999.0000 
  -999.0000 
  8652.5000 
     8.4900      2.5480      0.2870    -27.7900    100.8000      3.0400 
     3.2100      2.9400     82.0500     -0.0060   -999.0000   -999.0000 
  -999.0000 
  8653.0000 
     8.4900      2.5600      0.2810    -27.5500     97.5400      3.0500 
     3.2600      3.0400     81.8500     -0.0010   -999.0000   -999.0000 
  -999.0000 
  8653.5000 
     8.4900      2.5550      0.2890    -27.4300     96.1400      2.9900 
     3.2800      3.1800     81.3000      0.0050   -999.0000   -999.0000 
  -999.0000 
  8654.0000 
     8.4900      2.5400      0.2980    -27.4100     96.4800      2.9000 
     3.2200      3.2600     81.0000     -0.0050   -999.0000   -999.0000 
  -999.0000 
  8654.5000 
     8.4900      2.5420      0.2950    -27.7300    100.6000      2.8600 
     3.1300      3.2100     81.2500      0.0000   -999.0000   -999.0000 
  -999.0000 
  8655.0000 
     8.4900      2.5330      0.2940    -27.5600    103.5400      2.8000 
     3.0800      3.0700     81.9500      0.0000   -999.0000   -999.0000 
  -999.0000 
  8655.5000 
     8.4900      2.5340      0.3020    -27.5700    101.2400      2.7900 
     3.0300      2.8700     82.1000     -0.0050   -999.0000   -999.0000 
  -999.0000 
  8656.0000 
     8.4900      2.5490      0.2970    -27.6300    103.3300      2.8600 
     3.0000      2.7700     83.1500      0.0040   -999.0000   -999.0000 
  -999.0000 
  8656.5000 
     8.4900      2.5550      0.2850    -27.6900    103.0300      2.9200 
     3.0600      2.7900     82.8500      0.0170   -999.0000   -999.0000 
  -999.0000 
  8657.0000 
     8.4900      2.5220      0.2660    -27.7900    104.1700      2.8900 
     3.1300      2.7900     82.9000      0.0090   -999.0000   -999.0000 
  -999.0000 
  8657.5000 
     8.4900      2.5210      0.2480    -28.1800    101.8800      2.8400 
     3.1200      2.7500     83.3500      0.0160   -999.0000   -999.0000 
  -999.0000 
  8658.0000 
     8.4900      2.5580      0.2640    -28.0400     90.7400      2.7500 
     3.0700      2.6600     83.0000      0.0270   -999.0000   -999.0000 
  -999.0000 
  8658.5000 
     8.4900      2.5830      0.2920    -27.8000     89.2200      2.7000 
     2.9800      2.6200     82.7000      0.0500   -999.0000   -999.0000 
  -999.0000 
  8659.0000 
     8.4900      2.5530      0.3010    -27.6800     91.2000      2.8000 
     2.9200      2.5900     83.4000      0.0550   -999.0000   -999.0000 
  -999.0000 
  8659.5000 
     8.4900      2.5350      0.2940    -27.5700    100.3800      2.8700 
     3.0000      2.6700     82.9000      0.0270   -999.0000   -999.0000 
  -999.0000 
  8660.0000 
     8.4900      2.5470      0.2800    -27.0500     98.4600      2.9000 
     3.0900      2.7600     82.5000      0.0370   -999.0000   -999.0000 
  -999.0000 
  8660.5000 
     8.4800      2.5140      0.2720    -26.8700     94.9800      2.9000 
     3.1000      2.7900     82.6500      0.0480   -999.0000   -999.0000 
  -999.0000 
  8661.0000 
     8.4700      2.5130      0.2750    -26.7800     94.9400      2.9500 
     3.0700      2.8300     82.1500      0.0270   -999.0000   -999.0000 
  -999.0000 
  8661.5000 
     8.4600      2.5420      0.2760    -25.9300     96.4200      2.9400 
     3.0800      2.8200     82.1500      0.0240   -999.0000   -999.0000 
  -999.0000 
  8662.0000 
     8.4600      2.5170      0.2760    -25.8400     99.0600      2.9400 
     3.0700      2.8100     82.7000      0.0130   -999.0000   -999.0000 
  -999.0000 
  8662.5000 
     8.4400      2.5310      0.2860    -26.0200    100.6200      2.9300 
     3.0700      2.9000     81.7000      0.0100   -999.0000   -999.0000 
  -999.0000 
  8663.0000 
     8.4300      2.5650      0.2960    -24.9700     99.4100      2.9600 
     3.0600      3.0100     81.5500      0.0230   -999.0000   -999.0000 
  -999.0000 
  8663.5000 
     8.4200      2.5710      0.2910    -24.6500    100.4700      3.1100 
     3.0900      3.0700     82.1000      0.0350   -999.0000   -999.0000 
  -999.0000 
  8664.0000 
     8.4000      2.5600      0.2850    -24.1800     92.1000      3.2200 
     3.2000      3.1000     82.1500      0.0280   -999.0000   -999.0000 
  -999.0000 
  8664.5000 
     8.3900      2.5370      0.2790    -23.5000     90.8200      3.2300 
     3.3000      3.0400     83.3400      0.0130   -999.0000   -999.0000 
  -999.0000 
  8665.0000 
     8.3900      2.5030      0.2600    -22.7900     99.5400      3.3400 
     3.3000      2.9900     83.1000      0.0190   -999.0000   -999.0000 
  -999.0000 
  8665.5000 
     8.3900      2.4840      0.2430    -21.9100     92.6000      3.5600 
     3.3700      3.0600     83.2000      0.0330   -999.0000   -999.0000 
  -999.0000 
  8666.0000 
     8.3700      2.4790      0.2450    -20.8700     76.7000      3.8400 
     3.5300      3.2100     82.3000      0.0390   -999.0000   -999.0000 
  -999.0000 
  8666.5000 
     8.3600      2.4970      0.2550    -19.6000     74.1000      3.8800 
     3.7200      3.4900     79.9500      0.0370   -999.0000   -999.0000 
  -999.0000 
  8667.0000 
     8.3600      2.5140      0.2550    -18.5900     91.6200      3.4300 
     3.6600      3.6100     80.4000      0.0330   -999.0000   -999.0000 
  -999.0000 
  8667.5000 
     8.3600      2.5030      0.2440    -16.7600     93.8800      2.9200 
     3.1900      3.2300     80.3000      0.0400   -999.0000   -999.0000 
  -999.0000 
  8668.0000 
     8.3300      2.4630      0.2300    -14.8800     90.9400      2.4300 
     2.6700      2.5200     80.3500      0.0300   -999.0000   -999.0000 
  -999.0000 
  8668.5000 
     8.2600      2.3860      0.2110    -12.8500     66.9300      2.0400 
     2.2300      1.7400     81.2500      0.0130   -999.0000   -999.0000 
  -999.0000 
  8669.0000 
     8.0800      2.3220      0.1950    -10.6400     42.4600      1.9200 
     1.8900      1.2500     81.3000      0.0090   -999.0000   -999.0000 
  -999.0000 
  8669.5000 
     7.9900      2.3070      0.1860     -8.9200     24.5200      1.9900 
     1.7500      1.1400     81.6000      0.0170   -999.0000   -999.0000 
  -999.0000 
  8670.0000 
     7.9900      2.2990      0.1800     -7.9700     22.6900      2.1100 
     1.7900      1.1700     81.2000      0.0180   -999.0000   -999.0000 
  -999.0000 
  8670.5000 
     7.9900      2.2840      0.1780     -7.6800     18.7200      2.2300 
     1.8800      1.2500     81.5000      0.0090   -999.0000   -999.0000 
  -999.0000 
  8671.0000 
     7.9900      2.2970      0.1760     -7.6300     20.8700      2.3800 
     1.9900      1.3400     81.5500      0.0060   -999.0000   -999.0000 
  -999.0000 
