~VERSION INFORMATION
 VERS.                 2.0:   CWLS LOG ASCII STANDARD - VERSION 2.0
 WRAP.                 YES:   MULTIPLE LINES PER DEPTH STEP
~WELL INFORMATION
#MNEM.UNIT       DATA           DESCRIPTION MNEMONIC
#---------    -------------   --------------------------
 STRT.FT          7615.0000:   START DEPTH
 STOP.FT          8738.0000:   STOP DEPTH
 STEP.FT             0.5000:   STEP VALUE
 NULL.                                -999.0000:   NULL VALUE
 COMP. PGL                                     : COMPANY
 WELL. Test Well 1                             : WELL
 FLD . Somewhere                               : FIELD
 LOC .                                         : LOCATION
 PROV.                                         : PROVINCE
 SRVC. SCH                                     : SERVICE COMPANY
 DATE. 1 Jan 1999                              : LOG DATE
 UWI .                                         : UNIQUE WELL ID
~CURVE INFORMATION
#MNEM          UNIT     API CODE   Curve Type
#---------- ---------- ----------  ----------
 DEPTH     .FT                   : Depth     
 CALI      .IN                   : Caliper   
 RHOB      .G/C3                 : Density   
 TNPH      .DEC                  : Neutron   
 SP        .MV                   : SP        
 SGR       .GAPI                 : GammaRay  
 LLD       .OHMM                 : DeepRes   
 LLS       .OHMM                 : MedRes    
 MSFLC     .OHMM                 : MicroRes  
 DTLN      .US/F                 : Sonic     
 DRHO      .G/C3                 : Drho      
 PERMCORE  .MD                   : CORE      
 PHICORE   .FRAC                 : CORE      
 GDCORE    .KGDM                 : CORE      
~P Interactive Petrophysics parameters
#Name        Value                 Description
#----- --------------------------  -----------
 COUNT.     UK                   : Country
 STATE.     North Sea            : State
 PDAT .     MSL                  : Permanent Datum
 EPDAT.     0.0ft                : Elevation of the Permanent datum
 LGMEA.     KB                   : Log Measured from
 DRMEA.     DF                   : Drilling Measured from
 LGMEA.     KB                   : Log Measured from
 APDAT.     60ft                 : Elevation above Permanent dataum log Measured from
 KB   .     60ft                 : KB elevation
 DF   .     59ft                 : DF elevation
 GL   .     -200ft               : GL elevation
 TLINT.     7614ft               : Top logged interval
 BLINT.     8730ft               : Bottom logged interval
 CONT .     SCH                  : Logging Contractor
 RMS  .ohmm 0.2                  : Mud resistivity
 RMFS .ohmm 0.15                 : Mud filtrate resistivity
 RMCS .ohmm 0.3                  : Mud cake resistivity
 RW   .ohmm 0.1                  : Formation resistivity
 MST  .F    60.                  : Mud resistivity temperature
 MFST .F    60.                  : Mud filtrate resistivity temperature
 MCST .F    60.                  : Mud cake resistivity temperature
 RWT  .F    60.                  : Formation resistivity temperature
~A Log data section
# ...
  8718.5000 
     8.2400      2.5380      0.2000     -9.3400     53.7900      3.1400 
     3.5900      2.6100     78.6000      0.0820   -999.0000   -999.0000 
  -999.0000 
  8719.0000 
     8.2100      2.4660      0.1700     -8.8300     31.1600      2.5900 
     2.9900      1.8100     78.3000      0.0340   -999.0000   -999.0000 
  -999.0000 
  8719.5000 
     8.1100      2.3930      0.1710     -8.2100     24.1000      2.2200 
     2.4600      1.3700     79.2600      0.0110   -999.0000   -999.0000 
  -999.0000 
  8720.0000 
     8.1100      2.3360      0.1870     -7.6600     26.6400      2.1400 
     2.1200      1.2400     80.7500      0.0170   -999.0000   -999.0000 
  -999.0000 
  8720.5000 
     8.1100      2.3250      0.1960     -7.3100     31.1400      2.1600 
     2.0100      1.2500     82.4000      0.0360   -999.0000   -999.0000 
  -999.0000 
  8721.0000 
     8.1100      2.3250      0.1970     -7.3000     34.4600      2.2100 
     2.0100      1.3000     83.0500      0.0370   -999.0000   -999.0000 
  -999.0000 
  8721.5000 
     8.1100      2.3170      0.1920     -7.8200     34.0300      2.2700 
     2.0600      1.3200     83.2000      0.0170   -999.0000   -999.0000 
  -999.0000 
  8722.0000 
     8.1100      2.3150      0.1870     -7.8800     31.5000      2.2200 
     2.1200      1.3200     82.2000      0.0050   -999.0000   -999.0000 
  -999.0000 
  8722.5000 
     8.1100      2.3170      0.1800     -7.9600     29.9300      2.1400 
     2.1000      1.2800     82.1000      0.0060   -999.0000   -999.0000 
  -999.0000 
  8723.0000 
     8.1100      2.3370      0.1770     -8.2700     28.0900      2.1300 
     2.0200      1.2400     82.5000      0.0210   -999.0000   -999.0000 
  -999.0000 
  8723.5000 
     8.1100      2.3560      0.1800     -8.5300     24.9000      2.1200 
     2.0000      1.2500     82.4500      0.0520   -999.0000   -999.0000 
  -999.0000 
  8724.0000 
     8.1100      2.3470      0.1930     -9.0200     24.6300      2.1400 
     1.9800      1.3400     83.1500      0.0690   -999.0000   -999.0000 
  -999.0000 
  8724.5000 
     8.1100      2.3440      0.2410    -10.0700     29.0200      2.2400 
     1.9800      1.5500     82.3000      0.0720   -999.0000   -999.0000 
  -999.0000 
  8725.0000 
     8.1200      2.3410      0.3350    -11.1100     38.5800      2.3800 
     2.0400      1.7800     81.9500      0.0320   -999.0000   -999.0000 
  -999.0000 
  8725.5000 
     8.2000      2.4450      0.3900    -12.5400     46.6800      2.5700 
     2.1500      1.9000     82.9000      0.0230   -999.0000   -999.0000 
  -999.0000 
  8726.0000 
     8.3400      2.5640      0.3590    -13.9300     57.4300      2.7900 
     2.3000      1.9100     83.3000      0.0920   -999.0000   -999.0000 
  -999.0000 
  8726.5000 
     8.4400      2.5600      0.3340    -15.3700     78.1700      2.9600 
     2.5000      1.8900     83.4500      0.0760   -999.0000   -999.0000 
  -999.0000 
  8727.0000 
     8.4800      2.5360      0.3450    -16.8600     95.9400      3.0300 
     2.6800      1.9500     84.2500      0.0420   -999.0000   -999.0000 
  -999.0000 
  8727.5000 
     8.4900      2.5330      0.3520    -18.2700    100.5700      3.0300 
     2.7900      2.0700     83.9000      0.0370   -999.0000   -999.0000 
  -999.0000 
  8728.0000 
     8.4900      2.5410      0.3620    -19.3200    102.3200      2.9800 
     2.8200      2.2400     83.3000      0.0380   -999.0000   -999.0000 
  -999.0000 
  8728.5000 
     8.4900      2.5480      0.3960    -20.3100    103.9600      2.8300 
     2.7900      2.3500     83.8100      0.0210   -999.0000   -999.0000 
  -999.0000 
  8729.0000 
     8.5400      2.5520      0.4220    -21.2000    106.0900      2.6000 
     2.6700      2.2700     85.2100      0.0390   -999.0000   -999.0000 
  -999.0000 
  8729.5000 
     8.5500      2.5110      0.4220    -22.1800    107.5000      2.3900 
     2.4700      2.0800     87.8900      0.0220   -999.0000   -999.0000 
  -999.0000 
  8730.0000 
     8.5500      2.5190      0.4010    -22.8600    109.7400      2.2300 
     2.2800      1.9200     89.3000      0.0130   -999.0000   -999.0000 
  -999.0000 
  8730.5000 
     8.5500      2.5370      0.3760    -23.4100    112.2300      2.2500 
     2.1300      1.8700     89.4000      0.0070   -999.0000   -999.0000 
  -999.0000 
  8731.0000 
     8.5500      2.5500      0.3600    -23.9000    113.3000      2.5500 
     2.1300      2.0300     89.1000      0.0060   -999.0000   -999.0000 
  -999.0000 
  8731.5000 
     8.5400      2.5200      0.3630    -24.2800    112.1100      2.7300 
     2.3800      2.2900     87.6500      0.0310   -999.0000   -999.0000 
  -999.0000 
  8732.0000 
     8.4900      2.5010      0.4080    -24.7200    109.4700      2.4500 
     2.6000      2.5300     86.7500      0.0390   -999.0000   -999.0000 
  -999.0000 
  8732.5000 
     8.4900      2.5320      0.4680    -25.1500    100.3900      2.2300 
     2.4400      2.5300     88.6000      0.0480   -999.0000   -999.0000 
  -999.0000 
  8733.0000 
     8.4900      2.5190      0.4880    -25.4700     86.1300      2.0400 
     2.2300      2.2800     92.0600      0.0280   -999.0000   -999.0000 
  -999.0000 
  8733.5000 
     8.5000      2.5210      0.4750    -25.9900     83.7500      1.8200 
     2.0500      1.8700     93.8900      0.0140   -999.0000   -999.0000 
  -999.0000 
  8734.0000 
     8.5500      2.5280      0.4600    -26.5800     99.1000      1.7000 
     1.8300      1.5100     93.8000      0.0090   -999.0000   -999.0000 
  -999.0000 
  8734.5000 
     8.5500      2.5270      0.4470    -26.8900    111.7800      1.6200 
     1.7100      1.3400     93.4000      0.0010   -999.0000   -999.0000 
  -999.0000 
  8735.0000 
     8.5500      2.5190      0.4350    -27.0700    110.4600      1.5600 
     1.6200      1.3000     94.2000     -0.0040   -999.0000   -999.0000 
  -999.0000 
  8735.5000 
     8.5500      2.5070      0.4220    -27.1300    111.2800      1.5300 
     1.5700      1.2800     93.9000     -0.0050   -999.0000   -999.0000 
  -999.0000 
  8736.0000 
     8.5500      2.5010      0.4190    -27.2500    110.2900      1.4800 
     1.5400      1.2800     94.0000      0.0040   -999.0000   -999.0000 
  -999.0000 
  8736.5000 
     8.5500      2.5000      0.4140    -27.3100    110.0800      1.4500 
     1.5000      1.2500     94.3500      0.0100   -999.0000   -999.0000 
  -999.0000 
  8737.0000 
     8.5500      2.5060      0.4070    -27.3100    114.1600      1.4700 
     1.4700      1.1900     93.9000      0.0090   -999.0000   -999.0000 
  -999.0000 
  8737.5000 
  -999.0000   -999.0000   -999.0000   -999.0000   -999.0000   -999.0000 
  -999.0000   -999.0000   -999.0000   -999.0000   -999.0000   -999.0000 
  -999.0000 
  8738.0000 
  -999.0000   -999.0000   -999.0000   -999.0000   -999.0000   -999.0000 
  -999.0000   -999.0000   -999.0000   -999.0000   -999.0000   -999.0000 
  -999.0000 
